[
    {
        "id": 477904053,
        "name": "Island Peak",
        "ele": "6189",
        "realCoord": {
            "lat": 27.9231942,
            "lon": 86.9362857
        }
    },
    {
        "id": 564117511,
        "name": "Kala Patthar",
        "ele": "5648",
        "realCoord": {
            "lat": 27.9958,
            "lon": 86.8284407
        }
    },
    {
        "id": 2687648806,
        "name": "Lhotse Middle",
        "ele": "8372",
        "realCoord": {
            "lat": 27.9607748,
            "lon": 86.9386871
        }
    },
    {
        "id": 2950781581,
        "name": "Nangkartshang",
        "ele": "5073",
        "realCoord": {
            "lat": 27.9054758,
            "lon": 86.8354796
        }
    },
    {
        "id": 3134713323,
        "name": "Pike",
        "ele": "4065",
        "realCoord": {
            "lat": 27.5337493,
            "lon": 86.4795066
        }
    },
    {
        "id": 3215562631,
        "name": "Gonglha",
        "ele": "5813",
        "realCoord": {
            "lat": 27.696371,
            "lon": 86.7818301
        }
    },
    {
        "id": 3674846956,
        "name": "chankhe dada",
        "realCoord": {
            "lat": 27.1477302,
            "lon": 87.2663572
        }
    },
    {
        "id": 3696097627,
        "name": "Hillary Peak",
        "ele": "7681",
        "realCoord": {
            "lat": 27.9605613,
            "lon": 86.9142078
        }
    },
    {
        "id": 3696097630,
        "name": "Nuptse Nup I",
        "ele": "7784",
        "realCoord": {
            "lat": 27.9692548,
            "lon": 86.8849147
        }
    },
    {
        "id": 3696097632,
        "name": "Nuptse Shar I",
        "ele": "7804",
        "realCoord": {
            "lat": 27.9629984,
            "lon": 86.8942463
        }
    },
    {
        "id": 4239681885,
        "name": "Kyashar",
        "ele": "6769",
        "realCoord": {
            "lat": 27.7499387,
            "lon": 86.8167034
        }
    },
    {
        "id": 4975049405,
        "name": "Rani Bhir",
        "realCoord": {
            "lat": 27.05578,
            "lon": 87.6036794
        }
    },
    {
        "id": 5058594752,
        "name": "长征岭",
        "realCoord": {
            "lat": 28.054939,
            "lon": 86.9118762
        }
    }
]