[
    {
        "id": 242664544,
        "name": "Dreibündenstein",
        "ele": "2160",
        "realCoord": {
            "lat": 46.8009467,
            "lon": 9.496521
        }
    },
    {
        "id": 262875534,
        "name": "Parpaner Rothorn",
        "ele": "2861",
        "realCoord": {
            "lat": 46.742392,
            "lon": 9.5975502
        }
    },
    {
        "id": 262876689,
        "name": "Parpaner Weisshorn",
        "realCoord": {
            "lat": 46.7590938,
            "lon": 9.6020134
        }
    },
    {
        "id": 294632103,
        "name": "Riedkopf",
        "ele": "2551",
        "realCoord": {
            "lat": 46.9749946,
            "lon": 9.8777771
        }
    },
    {
        "id": 355740587,
        "name": "Cima di Camisolo",
        "ele": "2156",
        "realCoord": {
            "lat": 46.011167,
            "lon": 9.506369
        }
    },
    {
        "id": 385572558,
        "name": "Montirolo",
        "ele": "2126",
        "realCoord": {
            "lat": 46.0901966,
            "lon": 9.8799069
        }
    },
    {
        "id": 410445513,
        "name": "Monte Girosso",
        "realCoord": {
            "lat": 46.2615199,
            "lon": 9.7580961
        }
    },
    {
        "id": 412731771,
        "name": "La Muongia",
        "ele": "3415",
        "realCoord": {
            "lat": 46.3667346,
            "lon": 9.8244653
        }
    },
    {
        "id": 412731773,
        "name": "Piz Mortèl",
        "ele": "3442",
        "realCoord": {
            "lat": 46.4125194,
            "lon": 9.8194504
        }
    },
    {
        "id": 415531318,
        "name": "Eggberg",
        "realCoord": {
            "lat": 46.9577935,
            "lon": 9.8289787
        }
    },
    {
        "id": 416664330,
        "name": "Cima Cavrighe",
        "ele": "1244",
        "realCoord": {
            "lat": 46.0502988,
            "lon": 9.0327933
        }
    },
    {
        "id": 418946066,
        "name": "Pizzo Ravò",
        "ele": "1281",
        "realCoord": {
            "lat": 46.0422076,
            "lon": 9.078893
        }
    },
    {
        "id": 418946613,
        "name": "Monte Pradè",
        "ele": "1607",
        "realCoord": {
            "lat": 46.0523012,
            "lon": 9.0701059
        }
    },
    {
        "id": 438091763,
        "name": "Hoch Büel",
        "ele": "2080",
        "realCoord": {
            "lat": 46.6678036,
            "lon": 9.3510756
        }
    },
    {
        "id": 445677943,
        "name": "Firstboden",
        "realCoord": {
            "lat": 46.9075651,
            "lon": 9.1814
        }
    },
    {
        "id": 445677983,
        "name": "Zwölfihorn",
        "realCoord": {
            "lat": 46.891699,
            "lon": 9.1721383
        }
    },
    {
        "id": 445797069,
        "name": "Muttenchopf",
        "ele": "2482",
        "realCoord": {
            "lat": 46.8514231,
            "lon": 9.0151968
        }
    },
    {
        "id": 445797072,
        "name": "Hohloch",
        "ele": "2550",
        "realCoord": {
            "lat": 46.8560751,
            "lon": 9.0103534
        }
    },
    {
        "id": 445797079,
        "name": "Loch",
        "ele": "2550",
        "realCoord": {
            "lat": 46.8590331,
            "lon": 9.0070602
        }
    },
    {
        "id": 452007616,
        "name": "Pizzo Tamborello",
        "ele": "2667",
        "realCoord": {
            "lat": 46.5040355,
            "lon": 9.310909
        }
    },
    {
        "id": 452010782,
        "name": "Il Balzo",
        "ele": "2751",
        "realCoord": {
            "lat": 46.497679,
            "lon": 9.3045031
        }
    },
    {
        "id": 452026958,
        "name": "Pizzo Ursaregls",
        "ele": "2833",
        "realCoord": {
            "lat": 46.5000236,
            "lon": 9.3735293
        }
    },
    {
        "id": 452059474,
        "name": "Monte Garden",
        "ele": "2467",
        "realCoord": {
            "lat": 46.464481,
            "lon": 9.3141743
        }
    },
    {
        "id": 452060277,
        "name": "Monte del Gardenello",
        "ele": "1850",
        "realCoord": {
            "lat": 46.4797319,
            "lon": 9.3593213
        }
    },
    {
        "id": 452070861,
        "name": "Bullone del Piuro",
        "ele": "2381",
        "realCoord": {
            "lat": 46.4735869,
            "lon": 9.464595
        }
    },
    {
        "id": 452071584,
        "name": "Cima di Colle Sengio",
        "ele": "2420",
        "realCoord": {
            "lat": 46.4695076,
            "lon": 9.4655571
        }
    },
    {
        "id": 457015999,
        "name": "Pizzo Latta",
        "ele": "2598",
        "realCoord": {
            "lat": 46.4489598,
            "lon": 9.2845542
        }
    },
    {
        "id": 457016019,
        "name": "Mot del Lago Grande",
        "ele": "2359",
        "realCoord": {
            "lat": 46.4342134,
            "lon": 9.2721053
        }
    },
    {
        "id": 457016025,
        "name": "Pizzo Nebbione",
        "realCoord": {
            "lat": 46.3737183,
            "lon": 9.2754581
        }
    },
    {
        "id": 457016026,
        "name": "Motto dell` Asino",
        "ele": "2350",
        "realCoord": {
            "lat": 46.3735665,
            "lon": 9.2964656
        }
    },
    {
        "id": 457016044,
        "name": "Piz Dale`",
        "ele": "2600",
        "realCoord": {
            "lat": 46.4109595,
            "lon": 9.280737
        }
    },
    {
        "id": 457098448,
        "name": "Cima d'Ala",
        "ele": "2151",
        "realCoord": {
            "lat": 46.2972207,
            "lon": 9.3001999
        }
    },
    {
        "id": 457098466,
        "name": "Pizzo Gallusen",
        "ele": "2473",
        "realCoord": {
            "lat": 46.2693953,
            "lon": 9.2570381
        }
    },
    {
        "id": 457098506,
        "name": "Campanile di Val Marina",
        "realCoord": {
            "lat": 46.3361098,
            "lon": 9.2916885
        }
    },
    {
        "id": 457098523,
        "name": "Monte Cor del Nova",
        "ele": "1981",
        "realCoord": {
            "lat": 46.2582951,
            "lon": 9.2920345
        }
    },
    {
        "id": 457098611,
        "name": "Pizzo Setaggiolo Fuori",
        "ele": "2389",
        "realCoord": {
            "lat": 46.2892237,
            "lon": 9.2718191
        }
    },
    {
        "id": 457098620,
        "name": "Pizzo Gandaiole",
        "ele": "2396",
        "realCoord": {
            "lat": 46.2838165,
            "lon": 9.2692009
        }
    },
    {
        "id": 457098623,
        "name": "Pizzo d'Arsa",
        "ele": "2490",
        "realCoord": {
            "lat": 46.2686612,
            "lon": 9.2542306
        }
    },
    {
        "id": 457115443,
        "name": "Motto di Bondeno",
        "ele": "1786",
        "realCoord": {
            "lat": 46.3723118,
            "lon": 9.3745374
        }
    },
    {
        "id": 457124402,
        "name": "Il Pizzetto",
        "realCoord": {
            "lat": 46.3289979,
            "lon": 9.3329769
        }
    },
    {
        "id": 457124407,
        "name": "Pizzo Camoscera",
        "ele": "2050",
        "realCoord": {
            "lat": 46.3573166,
            "lon": 9.3402449
        }
    },
    {
        "id": 457124414,
        "name": "Motta Secca",
        "ele": "1670",
        "realCoord": {
            "lat": 46.362297,
            "lon": 9.378975
        }
    },
    {
        "id": 457124422,
        "name": "Pizzo Guardiello",
        "ele": "2091",
        "realCoord": {
            "lat": 46.3478358,
            "lon": 9.394452
        }
    },
    {
        "id": 457124426,
        "name": "Motto del Piano",
        "ele": "2313",
        "realCoord": {
            "lat": 46.3563361,
            "lon": 9.3957449
        }
    },
    {
        "id": 457124432,
        "name": "Dosso della Marcia",
        "ele": "1372",
        "realCoord": {
            "lat": 46.3359649,
            "lon": 9.3966827
        }
    },
    {
        "id": 457130718,
        "name": "Monte Cucco",
        "ele": "2024",
        "realCoord": {
            "lat": 46.2506726,
            "lon": 9.3122157
        }
    },
    {
        "id": 457160692,
        "name": "Cima dei Rossi Nuovi",
        "ele": "2709",
        "realCoord": {
            "lat": 46.4451556,
            "lon": 9.4598374
        }
    },
    {
        "id": 457160755,
        "name": "Montesel dell'Alpesella",
        "ele": "2576",
        "realCoord": {
            "lat": 46.4413339,
            "lon": 9.4182108
        }
    },
    {
        "id": 457160814,
        "name": "Punta del Poli",
        "ele": "2962",
        "realCoord": {
            "lat": 46.384869,
            "lon": 9.4661456
        }
    },
    {
        "id": 457161169,
        "name": "Cima di Pian Secco",
        "ele": "2765",
        "realCoord": {
            "lat": 46.4268711,
            "lon": 9.4558392
        }
    },
    {
        "id": 457161179,
        "name": "Lo Stellino",
        "ele": "2896",
        "realCoord": {
            "lat": 46.3885609,
            "lon": 9.4235192
        }
    },
    {
        "id": 457161217,
        "name": "Il Dente",
        "ele": "2805",
        "realCoord": {
            "lat": 46.3920265,
            "lon": 9.4213178
        }
    },
    {
        "id": 457354507,
        "name": "Monte Congen",
        "ele": "2143",
        "realCoord": {
            "lat": 46.3070369,
            "lon": 9.4974962
        }
    },
    {
        "id": 457354520,
        "name": "Cima Codera",
        "ele": "2799",
        "realCoord": {
            "lat": 46.2943066,
            "lon": 9.5153461
        }
    },
    {
        "id": 457354538,
        "name": "Zuc di Pradei",
        "ele": "2181",
        "realCoord": {
            "lat": 46.2636263,
            "lon": 9.4623836
        }
    },
    {
        "id": 457354548,
        "name": "Motta di Piaz",
        "ele": "1845",
        "realCoord": {
            "lat": 46.2681017,
            "lon": 9.4875662
        }
    },
    {
        "id": 457354566,
        "name": "Mot Luvre`",
        "ele": "2047",
        "realCoord": {
            "lat": 46.2444559,
            "lon": 9.4956093
        }
    },
    {
        "id": 457354617,
        "name": "Il Mottaccio",
        "ele": "1925",
        "realCoord": {
            "lat": 46.3010601,
            "lon": 9.4432449
        }
    },
    {
        "id": 457354637,
        "name": "Monte Saragiolo",
        "ele": "2304",
        "realCoord": {
            "lat": 46.3477909,
            "lon": 9.469183
        }
    },
    {
        "id": 457354746,
        "name": "Punta Buzzetti",
        "ele": "2505",
        "realCoord": {
            "lat": 46.2792451,
            "lon": 9.4612515
        }
    },
    {
        "id": 457354757,
        "name": "Monte Matra",
        "ele": "2205",
        "realCoord": {
            "lat": 46.280746,
            "lon": 9.4413316
        }
    },
    {
        "id": 457354769,
        "name": "Monte Sparavera",
        "ele": "2501",
        "realCoord": {
            "lat": 46.2789445,
            "lon": 9.4497604
        }
    },
    {
        "id": 457354786,
        "name": "Monte Matoldo",
        "ele": "1324",
        "realCoord": {
            "lat": 46.2853432,
            "lon": 9.4215772
        }
    },
    {
        "id": 457398087,
        "name": "Monte del Rocco",
        "ele": "1303",
        "realCoord": {
            "lat": 46.0070699,
            "lon": 9.1365576
        }
    },
    {
        "id": 457398094,
        "name": "Monte di Lenno",
        "ele": "1588",
        "realCoord": {
            "lat": 46.0003692,
            "lon": 9.1473185
        }
    },
    {
        "id": 457489059,
        "name": "Monte La Porta",
        "ele": "1344",
        "realCoord": {
            "lat": 46.0025311,
            "lon": 9.352842
        }
    },
    {
        "id": 458035614,
        "name": "Cime di Bronzone",
        "ele": "1373",
        "realCoord": {
            "lat": 46.048806,
            "lon": 9.0935686
        }
    },
    {
        "id": 458035761,
        "name": "Sassi Palazzi",
        "ele": "1462",
        "realCoord": {
            "lat": 46.0577214,
            "lon": 9.037631
        }
    },
    {
        "id": 458035820,
        "name": "Monte Spelucco",
        "ele": "1383",
        "realCoord": {
            "lat": 46.0494769,
            "lon": 9.0263872
        }
    },
    {
        "id": 458035867,
        "name": "Sass di Mont",
        "ele": "1262",
        "realCoord": {
            "lat": 46.0450036,
            "lon": 9.057504
        }
    },
    {
        "id": 458035986,
        "name": "Sasso Basciotta",
        "ele": "2073",
        "realCoord": {
            "lat": 46.1097755,
            "lon": 9.0779608
        }
    },
    {
        "id": 458036052,
        "name": "Monte Saletta",
        "ele": "1193",
        "realCoord": {
            "lat": 46.0410936,
            "lon": 9.0236428
        }
    },
    {
        "id": 458103712,
        "name": "Sasso Bianco",
        "ele": "1259",
        "realCoord": {
            "lat": 46.0105063,
            "lon": 9.1296118
        }
    },
    {
        "id": 458103716,
        "name": "Sasso di Cusino",
        "ele": "1276",
        "realCoord": {
            "lat": 46.065708,
            "lon": 9.1583993
        }
    },
    {
        "id": 458103717,
        "name": "Cime di Brugnone",
        "ele": "859",
        "realCoord": {
            "lat": 46.045822,
            "lon": 9.1927488
        }
    },
    {
        "id": 458103721,
        "name": "Cima Verta",
        "ele": "2078",
        "realCoord": {
            "lat": 46.1347231,
            "lon": 9.1211111
        }
    },
    {
        "id": 458103731,
        "name": "Monte Colmen dei Carac",
        "ele": "1094",
        "realCoord": {
            "lat": 46.0565247,
            "lon": 9.1249941
        }
    },
    {
        "id": 458103741,
        "name": "Cima Pomodoro",
        "ele": "1978",
        "realCoord": {
            "lat": 46.141409,
            "lon": 9.1253387
        }
    },
    {
        "id": 458103759,
        "name": "Pizzo di Sebol",
        "ele": "1703",
        "realCoord": {
            "lat": 46.1007175,
            "lon": 9.1713144
        }
    },
    {
        "id": 458103760,
        "name": "Il Pizzone",
        "ele": "1740",
        "realCoord": {
            "lat": 46.0882555,
            "lon": 9.1891339
        }
    },
    {
        "id": 458103763,
        "name": "Forcolette dell'Allegria",
        "ele": "1565",
        "realCoord": {
            "lat": 46.0797837,
            "lon": 9.1811758
        }
    },
    {
        "id": 458103767,
        "name": "Sasso Mezzano",
        "ele": "1381",
        "realCoord": {
            "lat": 46.0957309,
            "lon": 9.1054804
        }
    },
    {
        "id": 458103769,
        "name": "Sassi della Porta",
        "ele": "1311",
        "realCoord": {
            "lat": 46.0641131,
            "lon": 9.1296552
        }
    },
    {
        "id": 458162204,
        "name": "Ciapp del castell",
        "ele": "835",
        "realCoord": {
            "lat": 46.0423041,
            "lon": 9.2176858
        }
    },
    {
        "id": 458162298,
        "name": "Motto Rotondo (Cima degli Orsi)",
        "ele": "2245",
        "realCoord": {
            "lat": 46.202479,
            "lon": 9.2536043
        }
    },
    {
        "id": 458162326,
        "name": "Pizzo Campanile",
        "ele": "2459",
        "realCoord": {
            "lat": 46.232161,
            "lon": 9.2461967
        }
    },
    {
        "id": 458162351,
        "name": "Monte Nava",
        "ele": "1956",
        "realCoord": {
            "lat": 46.2098089,
            "lon": 9.2791856
        }
    },
    {
        "id": 458162367,
        "name": "Pizzo della Gratella",
        "ele": "2230",
        "realCoord": {
            "lat": 46.2219017,
            "lon": 9.24944
        }
    },
    {
        "id": 458162393,
        "name": "Monte Albiga",
        "ele": "917",
        "realCoord": {
            "lat": 46.0258855,
            "lon": 9.3082736
        }
    },
    {
        "id": 458225786,
        "name": "La Corvegia",
        "ele": "2282",
        "realCoord": {
            "lat": 46.2175682,
            "lon": 9.3520766
        }
    },
    {
        "id": 458225802,
        "name": "La Beta",
        "ele": "2019",
        "realCoord": {
            "lat": 46.2139686,
            "lon": 9.3400633
        }
    },
    {
        "id": 458225818,
        "name": "Montecchio Nord",
        "ele": "280",
        "realCoord": {
            "lat": 46.142965,
            "lon": 9.3810271
        }
    },
    {
        "id": 458225836,
        "name": "Cima del Laghetto",
        "ele": "1733",
        "realCoord": {
            "lat": 46.0305672,
            "lon": 9.4116852
        }
    },
    {
        "id": 458225839,
        "name": "Sasso del Rigo",
        "ele": "1853",
        "realCoord": {
            "lat": 46.0764446,
            "lon": 9.4055553
        }
    },
    {
        "id": 458225859,
        "name": "Il Matoch",
        "ele": "1380",
        "realCoord": {
            "lat": 46.0451174,
            "lon": 9.3435063
        }
    },
    {
        "id": 458225861,
        "name": "Il Foppone",
        "ele": "1373",
        "realCoord": {
            "lat": 46.0640306,
            "lon": 9.3680025
        }
    },
    {
        "id": 458241895,
        "name": "Punta Redescala",
        "ele": "2304",
        "realCoord": {
            "lat": 46.2261641,
            "lon": 9.5067615
        }
    },
    {
        "id": 458241896,
        "name": "Motto dei Dossi",
        "ele": "427",
        "realCoord": {
            "lat": 46.1953767,
            "lon": 9.4183737
        }
    },
    {
        "id": 458241897,
        "name": "Pizzo Piana",
        "ele": "2316",
        "realCoord": {
            "lat": 46.1837378,
            "lon": 9.5169487
        }
    },
    {
        "id": 458241917,
        "name": "Mottal dei Larici",
        "ele": "1397",
        "realCoord": {
            "lat": 46.1134415,
            "lon": 9.4456721
        }
    },
    {
        "id": 458241918,
        "name": "Monte di Frasnedo",
        "ele": "1992",
        "realCoord": {
            "lat": 46.2138626,
            "lon": 9.507473
        }
    },
    {
        "id": 458241928,
        "name": "Pizzo Val Torta",
        "ele": "1982",
        "realCoord": {
            "lat": 46.0910557,
            "lon": 9.4432119
        }
    },
    {
        "id": 458241937,
        "name": "Pizzo d'Alben",
        "ele": "1865",
        "realCoord": {
            "lat": 46.0379073,
            "lon": 9.4470898
        }
    },
    {
        "id": 458241938,
        "name": "Monte Foffricio",
        "ele": "1258",
        "realCoord": {
            "lat": 46.1718406,
            "lon": 9.4578233
        }
    },
    {
        "id": 458241943,
        "name": "Sasso Dirotto",
        "ele": "1536",
        "realCoord": {
            "lat": 46.0254319,
            "lon": 9.440753
        }
    },
    {
        "id": 458241950,
        "name": "Sasso Alto",
        "ele": "1900",
        "realCoord": {
            "lat": 46.0660734,
            "lon": 9.4285884
        }
    },
    {
        "id": 458241951,
        "name": "Cime di Sasso Alto",
        "ele": "1953",
        "realCoord": {
            "lat": 46.0679483,
            "lon": 9.4325871
        }
    },
    {
        "id": 458241954,
        "name": "Cima Cassera",
        "ele": "2326",
        "realCoord": {
            "lat": 46.0464518,
            "lon": 9.5014227
        }
    },
    {
        "id": 458241955,
        "name": "Cima di Cornice",
        "ele": "2159",
        "realCoord": {
            "lat": 46.073718,
            "lon": 9.4371485
        }
    },
    {
        "id": 458241957,
        "name": "Pizzo del Dente",
        "ele": "1889",
        "realCoord": {
            "lat": 46.0322177,
            "lon": 9.492507
        }
    },
    {
        "id": 458241962,
        "name": "Cima del Cortese",
        "ele": "2473",
        "realCoord": {
            "lat": 46.079095,
            "lon": 9.4522804
        }
    },
    {
        "id": 462744550,
        "name": "Monte Avaro",
        "ele": "2088",
        "realCoord": {
            "lat": 46.0162714,
            "lon": 9.5883533
        }
    },
    {
        "id": 470535138,
        "name": "Torrione Porro",
        "ele": "2935",
        "realCoord": {
            "lat": 46.2887936,
            "lon": 9.6066491
        }
    },
    {
        "id": 470535183,
        "name": "Punta Sertori",
        "ele": "3195",
        "realCoord": {
            "lat": 46.2936186,
            "lon": 9.5927177
        }
    },
    {
        "id": 470535214,
        "name": "Anticima Orientale",
        "ele": "3245",
        "realCoord": {
            "lat": 46.2942903,
            "lon": 9.606496
        }
    },
    {
        "id": 470567602,
        "name": "Punta della Sfinge",
        "ele": "2805",
        "realCoord": {
            "lat": 46.2431821,
            "lon": 9.5517825
        }
    },
    {
        "id": 470567638,
        "name": "Pulè",
        "ele": "2221",
        "realCoord": {
            "lat": 46.2606887,
            "lon": 9.5472096
        }
    },
    {
        "id": 470567670,
        "name": "Punta Milano",
        "ele": "2454",
        "realCoord": {
            "lat": 46.2610601,
            "lon": 9.5625987
        }
    },
    {
        "id": 470567742,
        "name": "Pizzo Bresciadega",
        "ele": "2666",
        "realCoord": {
            "lat": 46.2451797,
            "lon": 9.5219646
        }
    },
    {
        "id": 470567791,
        "name": "Punta Magnaghi",
        "ele": "2872",
        "realCoord": {
            "lat": 46.2338509,
            "lon": 9.5290923
        }
    },
    {
        "id": 470567866,
        "name": "Punta Bertani",
        "ele": "2805",
        "realCoord": {
            "lat": 46.268092,
            "lon": 9.6092974
        }
    },
    {
        "id": 470567891,
        "name": "Punta Paganini",
        "ele": "2789",
        "realCoord": {
            "lat": 46.2690043,
            "lon": 9.61037
        }
    },
    {
        "id": 470618157,
        "name": "Torre Re Alberto",
        "ele": "2827",
        "realCoord": {
            "lat": 46.2790979,
            "lon": 9.6981761
        }
    },
    {
        "id": 470618158,
        "name": "Torre Sud di Cameraccio",
        "ele": "2828",
        "realCoord": {
            "lat": 46.2799594,
            "lon": 9.6985895
        }
    },
    {
        "id": 470618159,
        "name": "Torre Centrale di Cameraccio",
        "ele": "2889",
        "realCoord": {
            "lat": 46.2816688,
            "lon": 9.6986793
        }
    },
    {
        "id": 470618160,
        "name": "Torre Nord di Cameraccio",
        "ele": "2930",
        "realCoord": {
            "lat": 46.2825563,
            "lon": 9.6992488
        }
    },
    {
        "id": 470618164,
        "name": "Punta di Cameraccio",
        "ele": "3026",
        "realCoord": {
            "lat": 46.2861909,
            "lon": 9.7016561
        }
    },
    {
        "id": 470857149,
        "name": "Punta Mezzola",
        "ele": "2070",
        "realCoord": {
            "lat": 46.2477288,
            "lon": 9.668929
        }
    },
    {
        "id": 470857156,
        "name": "Punta Meridionale del Cameraccio",
        "ele": "2741",
        "realCoord": {
            "lat": 46.2751987,
            "lon": 9.6971491
        }
    },
    {
        "id": 470857158,
        "name": "Torrione Qualido",
        "ele": "2708",
        "realCoord": {
            "lat": 46.2747046,
            "lon": 9.6409121
        }
    },
    {
        "id": 470857160,
        "name": "Monte Pesconfio",
        "ele": "1590",
        "realCoord": {
            "lat": 46.2350012,
            "lon": 9.6223376
        }
    },
    {
        "id": 470880213,
        "name": "Cima di Postalesio",
        "ele": "2985",
        "realCoord": {
            "lat": 46.2387116,
            "lon": 9.7416568
        }
    },
    {
        "id": 470880241,
        "name": "Pizzo di Primolo",
        "ele": "2759",
        "realCoord": {
            "lat": 46.2815889,
            "lon": 9.8146465
        }
    },
    {
        "id": 470880266,
        "name": "Monte Mottuccio",
        "ele": "2522",
        "realCoord": {
            "lat": 46.3072568,
            "lon": 9.7467691
        }
    },
    {
        "id": 470880284,
        "name": "Monte dell'Amianto",
        "ele": "2955",
        "realCoord": {
            "lat": 46.2644261,
            "lon": 9.7870802
        }
    },
    {
        "id": 470880311,
        "name": "Punta del Lago",
        "ele": "2796",
        "realCoord": {
            "lat": 46.2714899,
            "lon": 9.7937304
        }
    },
    {
        "id": 470880317,
        "name": "Pizzo Pradaccio",
        "ele": "2596",
        "realCoord": {
            "lat": 46.266461,
            "lon": 9.8024658
        }
    },
    {
        "id": 470880323,
        "name": "Punta Kennedy",
        "ele": "3283",
        "realCoord": {
            "lat": 46.2742384,
            "lon": 9.7603424
        }
    },
    {
        "id": 470880327,
        "name": "Cima Sassersa",
        "ele": "2973",
        "realCoord": {
            "lat": 46.2682747,
            "lon": 9.7829778
        }
    },
    {
        "id": 470880350,
        "name": "Cima di Corna Rossa",
        "ele": "3180",
        "realCoord": {
            "lat": 46.2561032,
            "lon": 9.7465849
        }
    },
    {
        "id": 470880354,
        "name": "Pizzo Giumellino",
        "ele": "3091",
        "realCoord": {
            "lat": 46.2645634,
            "lon": 9.7815056
        }
    },
    {
        "id": 470896716,
        "name": "Cima Orientale di Musella",
        "ele": "3022",
        "realCoord": {
            "lat": 46.3354156,
            "lon": 9.9159162
        }
    },
    {
        "id": 470896732,
        "name": "Sasso Nero",
        "ele": "2752",
        "realCoord": {
            "lat": 46.3169642,
            "lon": 9.87321
        }
    },
    {
        "id": 470896775,
        "name": "Il Castello",
        "ele": "2637",
        "realCoord": {
            "lat": 46.3217552,
            "lon": 9.8582294
        }
    },
    {
        "id": 470965833,
        "name": "Mittenberg",
        "realCoord": {
            "lat": 46.850001,
            "lon": 9.5476749
        }
    },
    {
        "id": 471229743,
        "name": "Corna Brutana",
        "ele": "3059",
        "realCoord": {
            "lat": 46.2366941,
            "lon": 9.9573648
        }
    },
    {
        "id": 471229784,
        "name": "Dosso di Scespet",
        "ele": "2748",
        "realCoord": {
            "lat": 46.2322297,
            "lon": 9.9732078
        }
    },
    {
        "id": 471229808,
        "name": "Cima Vicima",
        "ele": "3122",
        "realCoord": {
            "lat": 46.2474731,
            "lon": 9.9713979
        }
    },
    {
        "id": 471229817,
        "name": "Punta Corti",
        "ele": "3076",
        "realCoord": {
            "lat": 46.2406864,
            "lon": 9.9631592
        }
    },
    {
        "id": 471229823,
        "name": "Pizzo di Canciano",
        "ele": "3103",
        "realCoord": {
            "lat": 46.2832751,
            "lon": 9.9996282
        }
    },
    {
        "id": 471229831,
        "name": "Pizzo Calino",
        "ele": "3025",
        "realCoord": {
            "lat": 46.2469423,
            "lon": 9.994037
        }
    },
    {
        "id": 471229833,
        "name": "Pizzo della Vedretta",
        "ele": "2932",
        "realCoord": {
            "lat": 46.3438456,
            "lon": 9.9858774
        }
    },
    {
        "id": 471229834,
        "name": "Il Cornetto",
        "ele": "2850",
        "realCoord": {
            "lat": 46.2866403,
            "lon": 9.9732985
        }
    },
    {
        "id": 471229840,
        "name": "Cima di Val Fontana",
        "ele": "3225",
        "realCoord": {
            "lat": 46.276769,
            "lon": 9.9797977
        }
    },
    {
        "id": 471229891,
        "name": "Sasso Rosso",
        "ele": "3488",
        "realCoord": {
            "lat": 46.3560305,
            "lon": 9.9583375
        }
    },
    {
        "id": 471229893,
        "name": "Colle di Val Molina",
        "ele": "3006",
        "realCoord": {
            "lat": 46.2532817,
            "lon": 9.9831919
        }
    },
    {
        "id": 475055889,
        "name": "Monte Verrobbio",
        "ele": "2136",
        "realCoord": {
            "lat": 46.0437196,
            "lon": 9.6041528
        }
    },
    {
        "id": 475055892,
        "name": "Pizzo Val Carnera",
        "ele": "2112",
        "realCoord": {
            "lat": 46.0529197,
            "lon": 9.5969442
        }
    },
    {
        "id": 475055898,
        "name": "Pizzo Berro",
        "ele": "1851",
        "realCoord": {
            "lat": 46.0848927,
            "lon": 9.5766
        }
    },
    {
        "id": 475055903,
        "name": "Monte Olano",
        "ele": "1718",
        "realCoord": {
            "lat": 46.1039075,
            "lon": 9.5258757
        }
    },
    {
        "id": 475055911,
        "name": "Il Piazzo",
        "ele": "2262",
        "realCoord": {
            "lat": 46.049767,
            "lon": 9.5240198
        }
    },
    {
        "id": 475055913,
        "name": "Rocca di Pescegallo",
        "ele": "2082",
        "realCoord": {
            "lat": 46.0277676,
            "lon": 9.5652565
        }
    },
    {
        "id": 475055920,
        "name": "Pizzo di Tronella",
        "ele": "2311",
        "realCoord": {
            "lat": 46.0311425,
            "lon": 9.5495355
        }
    },
    {
        "id": 475055922,
        "name": "Pizzo del Mezzodì",
        "ele": "2116",
        "realCoord": {
            "lat": 46.0327248,
            "lon": 9.5490012
        }
    },
    {
        "id": 475055925,
        "name": "Pizzo della Nebbia",
        "ele": "2243",
        "realCoord": {
            "lat": 46.0358909,
            "lon": 9.5951438
        }
    },
    {
        "id": 475055927,
        "name": "Il Forcellino",
        "realCoord": {
            "lat": 46.0378065,
            "lon": 9.5928318
        }
    },
    {
        "id": 475055932,
        "name": "Monte Valletto",
        "ele": "2370",
        "realCoord": {
            "lat": 46.0239818,
            "lon": 9.5877031
        }
    },
    {
        "id": 475055971,
        "name": "Punta Virgilio",
        "ele": "2482",
        "realCoord": {
            "lat": 46.2291791,
            "lon": 9.5785942
        }
    },
    {
        "id": 475055994,
        "name": "Pizzo di Giacomo",
        "ele": "2184",
        "realCoord": {
            "lat": 46.0132375,
            "lon": 9.5659784
        }
    },
    {
        "id": 475056004,
        "name": "Sasso Zucco",
        "ele": "2050",
        "realCoord": {
            "lat": 46.2013964,
            "lon": 9.530486
        }
    },
    {
        "id": 475056017,
        "name": "Cima della Rosetta",
        "ele": "2156",
        "realCoord": {
            "lat": 46.0905762,
            "lon": 9.5174896
        }
    },
    {
        "id": 475056025,
        "name": "Punta Volta",
        "ele": "2756",
        "realCoord": {
            "lat": 46.2297295,
            "lon": 9.5297082
        }
    },
    {
        "id": 475056030,
        "name": "Monte Foppa",
        "ele": "1895",
        "realCoord": {
            "lat": 46.0166535,
            "lon": 9.6078908
        }
    },
    {
        "id": 475056034,
        "name": "Monte Triomen",
        "ele": "2245",
        "realCoord": {
            "lat": 46.0202104,
            "lon": 9.5929825
        }
    },
    {
        "id": 480124216,
        "name": "Monte Baitridana",
        "ele": "1880",
        "realCoord": {
            "lat": 46.1017712,
            "lon": 9.6208515
        }
    },
    {
        "id": 480124247,
        "name": "Pizzo d'Orta",
        "ele": "2184",
        "realCoord": {
            "lat": 46.062308,
            "lon": 9.631666
        }
    },
    {
        "id": 480124582,
        "name": "Pizzo delle Piodere",
        "ele": "2207",
        "realCoord": {
            "lat": 46.0726447,
            "lon": 9.6375862
        }
    },
    {
        "id": 480124627,
        "name": "Monte Piezza",
        "ele": "2258",
        "realCoord": {
            "lat": 46.227494,
            "lon": 9.6586412
        }
    },
    {
        "id": 480124651,
        "name": "Pizzo del Vento",
        "ele": "2241",
        "realCoord": {
            "lat": 46.0620869,
            "lon": 9.6611574
        }
    },
    {
        "id": 480124696,
        "name": "Pizzo del Vallone",
        "ele": "2249",
        "realCoord": {
            "lat": 46.0604703,
            "lon": 9.6872405
        }
    },
    {
        "id": 480124769,
        "name": "Pizzo Gerlo",
        "ele": "2470",
        "realCoord": {
            "lat": 46.1037821,
            "lon": 9.7223883
        }
    },
    {
        "id": 480124876,
        "name": "Monte Piscino",
        "ele": "2090",
        "realCoord": {
            "lat": 46.1102366,
            "lon": 9.6581443
        }
    },
    {
        "id": 480124888,
        "name": "Monte Culino",
        "ele": "2320",
        "realCoord": {
            "lat": 46.0921256,
            "lon": 9.647643
        }
    },
    {
        "id": 480124922,
        "name": "Dosso Tacher",
        "ele": "2100",
        "realCoord": {
            "lat": 46.0851105,
            "lon": 9.6868242
        }
    },
    {
        "id": 480124939,
        "name": "Monte Pisello",
        "ele": "2271",
        "realCoord": {
            "lat": 46.0961765,
            "lon": 9.6498704
        }
    },
    {
        "id": 480125030,
        "name": "Picco della Porta",
        "ele": "2107",
        "realCoord": {
            "lat": 46.0571983,
            "lon": 9.6570087
        }
    },
    {
        "id": 480125099,
        "name": "Cima di Lemma",
        "ele": "2345",
        "realCoord": {
            "lat": 46.0624531,
            "lon": 9.708863
        }
    },
    {
        "id": 480125344,
        "name": "Pizzo",
        "ele": "2286",
        "realCoord": {
            "lat": 46.1194534,
            "lon": 9.7134431
        }
    },
    {
        "id": 480125352,
        "name": "Cima della Zocca",
        "ele": "2074",
        "realCoord": {
            "lat": 46.1283242,
            "lon": 9.6986636
        }
    },
    {
        "id": 480125383,
        "name": "Sasso Arso",
        "ele": "2332",
        "realCoord": {
            "lat": 46.2258046,
            "lon": 9.7078054
        }
    },
    {
        "id": 480125401,
        "name": "Pizzo Mercantelli",
        "ele": "2070",
        "realCoord": {
            "lat": 46.2105574,
            "lon": 9.6721774
        }
    },
    {
        "id": 480477255,
        "name": "Dosso Morandi",
        "ele": "1696",
        "realCoord": {
            "lat": 46.1279308,
            "lon": 9.7914299
        }
    },
    {
        "id": 480477258,
        "name": "Punta Cerech",
        "ele": "2409",
        "realCoord": {
            "lat": 46.0806054,
            "lon": 9.8098077
        }
    },
    {
        "id": 480477270,
        "name": "Pizzolo",
        "ele": "2080",
        "realCoord": {
            "lat": 46.1082256,
            "lon": 9.7365926
        }
    },
    {
        "id": 480477274,
        "name": "Pizzo della Corna",
        "ele": "1871",
        "realCoord": {
            "lat": 46.1160179,
            "lon": 9.7685312
        }
    },
    {
        "id": 480477276,
        "name": "Poggio Passo del Cavallo",
        "ele": "2604",
        "realCoord": {
            "lat": 46.216662,
            "lon": 9.743971
        }
    },
    {
        "id": 480477299,
        "name": "Monte Colina",
        "ele": "2449",
        "realCoord": {
            "lat": 46.2113789,
            "lon": 9.7729042
        }
    },
    {
        "id": 480477348,
        "name": "Le Forcelle Alte",
        "ele": "1750",
        "realCoord": {
            "lat": 46.0177629,
            "lon": 9.7633693
        }
    },
    {
        "id": 480477363,
        "name": "Monte Sardegnana",
        "ele": "1904",
        "realCoord": {
            "lat": 46.0187909,
            "lon": 9.8056717
        }
    },
    {
        "id": 480477388,
        "name": "Monte Arete",
        "ele": "2228",
        "realCoord": {
            "lat": 46.0497744,
            "lon": 9.7369229
        }
    },
    {
        "id": 480477394,
        "name": "Le Forcelle Basse",
        "ele": "1608",
        "realCoord": {
            "lat": 46.0152166,
            "lon": 9.7604061
        }
    },
    {
        "id": 480705134,
        "name": "Pizzo Biorco",
        "ele": "2734",
        "realCoord": {
            "lat": 46.0889847,
            "lon": 9.9688912
        }
    },
    {
        "id": 480705141,
        "name": "Punta della Pessa",
        "ele": "2470",
        "realCoord": {
            "lat": 46.1071598,
            "lon": 9.9337974
        }
    },
    {
        "id": 480705224,
        "name": "Punta Campione",
        "ele": "2278",
        "realCoord": {
            "lat": 46.1119452,
            "lon": 9.9317406
        }
    },
    {
        "id": 480705233,
        "name": "Pizzo di Porola",
        "ele": "2981",
        "realCoord": {
            "lat": 46.0707331,
            "lon": 9.9871663
        }
    },
    {
        "id": 480705255,
        "name": "Pizzo Ceppo",
        "ele": "2296",
        "realCoord": {
            "lat": 46.0306537,
            "lon": 9.9294887
        }
    },
    {
        "id": 480705481,
        "name": "Punta Portorella",
        "ele": "2150",
        "realCoord": {
            "lat": 46.1115141,
            "lon": 9.8623955
        }
    },
    {
        "id": 480705491,
        "name": "Dosso Bruciato",
        "ele": "2184",
        "realCoord": {
            "lat": 46.208977,
            "lon": 9.9329145
        }
    },
    {
        "id": 480705502,
        "name": "Punta della Piada",
        "ele": "2120",
        "realCoord": {
            "lat": 46.118397,
            "lon": 9.8809714
        }
    },
    {
        "id": 480705515,
        "name": "Pizzo Culdera",
        "ele": "2171",
        "realCoord": {
            "lat": 46.1112954,
            "lon": 9.9779247
        }
    },
    {
        "id": 480705550,
        "name": "Crùs de Campondola",
        "ele": "2139",
        "realCoord": {
            "lat": 46.209539,
            "lon": 9.9834401
        }
    },
    {
        "id": 480705552,
        "name": "Il Medasc Sud",
        "ele": "2647",
        "realCoord": {
            "lat": 46.0665385,
            "lon": 9.9479281
        }
    },
    {
        "id": 480705558,
        "name": "Pizzo del Salto",
        "ele": "2665",
        "realCoord": {
            "lat": 46.0580735,
            "lon": 9.9109269
        }
    },
    {
        "id": 480705562,
        "name": "Dosso della Foppa",
        "ele": "1658",
        "realCoord": {
            "lat": 46.1977701,
            "lon": 9.9005592
        }
    },
    {
        "id": 480705563,
        "name": "Pizzo Castello",
        "ele": "2039",
        "realCoord": {
            "lat": 46.0460036,
            "lon": 9.9972853
        }
    },
    {
        "id": 480705565,
        "name": "Sasso della Nona",
        "ele": "1291",
        "realCoord": {
            "lat": 46.1420531,
            "lon": 9.9300006
        }
    },
    {
        "id": 480705571,
        "name": "Pizzo Cavrin",
        "ele": "2630",
        "realCoord": {
            "lat": 46.0625501,
            "lon": 9.9350084
        }
    },
    {
        "id": 480705574,
        "name": "Cima di Caronno",
        "ele": "2855",
        "realCoord": {
            "lat": 46.0755658,
            "lon": 9.9831046
        }
    },
    {
        "id": 480705576,
        "name": "Pizzo dell'Omo",
        "ele": "2771",
        "realCoord": {
            "lat": 46.0518666,
            "lon": 9.907131
        }
    },
    {
        "id": 491536146,
        "name": "Cima Fontane",
        "ele": "2095",
        "realCoord": {
            "lat": 46.0056928,
            "lon": 9.5414714
        }
    },
    {
        "id": 491536208,
        "name": "La Spalla",
        "ele": "1718",
        "realCoord": {
            "lat": 46.0046693,
            "lon": 9.5695959
        }
    },
    {
        "id": 499575032,
        "name": "Piz Spinas",
        "ele": "3823",
        "realCoord": {
            "lat": 46.3793014,
            "lon": 9.9527592
        }
    },
    {
        "id": 502022789,
        "name": "Materone",
        "ele": "931",
        "realCoord": {
            "lat": 46.014671,
            "lon": 9.0038415
        }
    },
    {
        "id": 519825459,
        "name": "Chantota",
        "ele": "2542",
        "realCoord": {
            "lat": 46.6320706,
            "lon": 9.6696005
        }
    },
    {
        "id": 519825727,
        "name": "Cuolm Da Latsch",
        "ele": "2296",
        "realCoord": {
            "lat": 46.6502912,
            "lon": 9.7549075
        }
    },
    {
        "id": 519826173,
        "name": "Piz Digl Barba Peder",
        "ele": "2746",
        "realCoord": {
            "lat": 46.6076115,
            "lon": 9.7185154
        }
    },
    {
        "id": 519826315,
        "name": "Piz Radond",
        "ele": "2666",
        "realCoord": {
            "lat": 46.6159368,
            "lon": 9.7192879
        }
    },
    {
        "id": 519826360,
        "name": "Piz Prosonch",
        "ele": "2684",
        "realCoord": {
            "lat": 46.6531899,
            "lon": 9.7849484
        }
    },
    {
        "id": 519826554,
        "name": "Piz Spadlatscha",
        "ele": "2781",
        "realCoord": {
            "lat": 46.6157658,
            "lon": 9.7038384
        }
    },
    {
        "id": 519826584,
        "name": "Piz Rugnux",
        "ele": "2736",
        "realCoord": {
            "lat": 46.6091564,
            "lon": 9.7340508
        }
    },
    {
        "id": 519826735,
        "name": "Rossboden",
        "ele": "2601",
        "realCoord": {
            "lat": 46.7581985,
            "lon": 9.8670283
        }
    },
    {
        "id": 520395738,
        "name": "Spundisköpfe",
        "realCoord": {
            "lat": 46.8226521,
            "lon": 9.5078076
        }
    },
    {
        "id": 520395749,
        "name": "Furggabüel",
        "realCoord": {
            "lat": 46.8044896,
            "lon": 9.495551
        }
    },
    {
        "id": 572682058,
        "name": "Monte Calvera",
        "ele": "2301",
        "realCoord": {
            "lat": 46.0036988,
            "lon": 9.9825858
        }
    },
    {
        "id": 574860233,
        "name": "Heckenhütte",
        "ele": "1274",
        "realCoord": {
            "lat": 46.8558683,
            "lon": 9.559932
        }
    },
    {
        "id": 599271162,
        "name": "Piz Titschal",
        "ele": "2550",
        "realCoord": {
            "lat": 46.7082769,
            "lon": 9.0301717
        }
    },
    {
        "id": 603434528,
        "name": "Il Dossone",
        "ele": "903",
        "realCoord": {
            "lat": 46.0053497,
            "lon": 9.2175963
        }
    },
    {
        "id": 606371532,
        "name": "Piz Boval",
        "ele": "3353",
        "realCoord": {
            "lat": 46.4173799,
            "lon": 9.9022889
        }
    },
    {
        "id": 617770716,
        "name": "Monte Duria - Cima W",
        "ele": "2245",
        "realCoord": {
            "lat": 46.2036257,
            "lon": 9.2560496
        }
    },
    {
        "id": 618401839,
        "name": "Punta Motta",
        "ele": "2297",
        "realCoord": {
            "lat": 46.2358475,
            "lon": 9.2709689
        }
    },
    {
        "id": 618401956,
        "name": "Motto di Campo",
        "ele": "2372",
        "realCoord": {
            "lat": 46.2348488,
            "lon": 9.3162142
        }
    },
    {
        "id": 665610742,
        "name": "Sasso Bodengo",
        "ele": "2407",
        "realCoord": {
            "lat": 46.2336989,
            "lon": 9.2485896
        }
    },
    {
        "id": 666974859,
        "name": "Camaner Grat",
        "realCoord": {
            "lat": 46.6696669,
            "lon": 9.2618798
        }
    },
    {
        "id": 666996719,
        "name": "Girenspitz",
        "ele": "2369",
        "realCoord": {
            "lat": 46.9943191,
            "lon": 9.8201182
        }
    },
    {
        "id": 666996788,
        "name": "Kuchenberg",
        "ele": "2523",
        "realCoord": {
            "lat": 46.9344975,
            "lon": 9.9828758
        }
    },
    {
        "id": 666996799,
        "name": "Burg",
        "ele": "2247",
        "realCoord": {
            "lat": 46.9733272,
            "lon": 9.9959066
        }
    },
    {
        "id": 666996800,
        "name": "Gantekopf",
        "ele": "1958",
        "realCoord": {
            "lat": 46.9877997,
            "lon": 9.9906252
        }
    },
    {
        "id": 830989393,
        "name": "Piz San Gian",
        "ele": "3134",
        "realCoord": {
            "lat": 46.4577046,
            "lon": 9.8481875
        }
    },
    {
        "id": 830989394,
        "name": "Piz Rosatsch",
        "ele": "3123",
        "realCoord": {
            "lat": 46.4602083,
            "lon": 9.8540611
        }
    },
    {
        "id": 851736320,
        "name": "Schwarzhorn",
        "realCoord": {
            "lat": 46.6182307,
            "lon": 9.2999024
        }
    },
    {
        "id": 862848111,
        "name": "Isla Persa",
        "ele": "2720",
        "realCoord": {
            "lat": 46.4048759,
            "lon": 9.945022
        }
    },
    {
        "id": 866258357,
        "name": "Motto della Croce",
        "ele": "1254",
        "realCoord": {
            "lat": 46.1930992,
            "lon": 9.0524621
        }
    },
    {
        "id": 877117415,
        "name": "Motto d'Arbino",
        "ele": "1695",
        "realCoord": {
            "lat": 46.1881301,
            "lon": 9.0690527
        }
    },
    {
        "id": 890830006,
        "name": "Il Sasso",
        "ele": "1454",
        "realCoord": {
            "lat": 46.0966586,
            "lon": 9.1392518
        }
    },
    {
        "id": 904406143,
        "name": "Safierberg",
        "ele": "2486",
        "realCoord": {
            "lat": 46.5781206,
            "lon": 9.2647258
        }
    },
    {
        "id": 1131345163,
        "name": "Mutta",
        "ele": "2304",
        "realCoord": {
            "lat": 46.7076193,
            "lon": 9.0037502
        }
    },
    {
        "id": 1131351838,
        "name": "Piz Gren",
        "ele": "2890",
        "realCoord": {
            "lat": 46.6748855,
            "lon": 9.0348209
        }
    },
    {
        "id": 1131372016,
        "name": "Piz Ner",
        "ele": "2766",
        "realCoord": {
            "lat": 46.60725,
            "lon": 9.0117255
        }
    },
    {
        "id": 1133729597,
        "name": "Wiss-Chöpf",
        "realCoord": {
            "lat": 46.6658714,
            "lon": 9.5056794
        }
    },
    {
        "id": 1133729610,
        "name": "Stürvisser Tschuggen",
        "realCoord": {
            "lat": 46.6625728,
            "lon": 9.510443
        }
    },
    {
        "id": 1148691998,
        "name": "Grüeniberg",
        "ele": "2373",
        "realCoord": {
            "lat": 46.7905409,
            "lon": 9.7868241
        }
    },
    {
        "id": 1208675108,
        "name": "Alpstein",
        "ele": "2298",
        "realCoord": {
            "lat": 46.7950386,
            "lon": 9.6008857
        }
    },
    {
        "id": 1208682053,
        "name": "Chlin Gürgaletsch",
        "ele": "2279",
        "realCoord": {
            "lat": 46.7995408,
            "lon": 9.5744374
        }
    },
    {
        "id": 1208683401,
        "name": "Malakoff",
        "ele": "2358",
        "realCoord": {
            "lat": 46.7842622,
            "lon": 9.5830205
        }
    },
    {
        "id": 1208687791,
        "name": "Güdaspitz",
        "ele": "2160",
        "realCoord": {
            "lat": 46.7947227,
            "lon": 9.6279958
        }
    },
    {
        "id": 1254618173,
        "name": "Sasso di San Martino",
        "ele": "862",
        "realCoord": {
            "lat": 46.0068097,
            "lon": 9.2236059
        }
    },
    {
        "id": 1372726175,
        "name": "Cima Dermone",
        "ele": "2424",
        "realCoord": {
            "lat": 46.2143674,
            "lon": 9.2187392
        }
    },
    {
        "id": 1372728549,
        "name": "Torrione di Zocca",
        "ele": "3080",
        "realCoord": {
            "lat": 46.2883179,
            "lon": 9.6447043
        }
    },
    {
        "id": 1372728687,
        "name": "Piz di Rüss - Cima Croce",
        "ele": "2126",
        "realCoord": {
            "lat": 46.2909409,
            "lon": 9.1441847
        }
    },
    {
        "id": 1372728818,
        "name": "Punta Alessandra",
        "ele": "3263",
        "realCoord": {
            "lat": 46.2939014,
            "lon": 9.6923026
        }
    },
    {
        "id": 1372728943,
        "name": "Punta di Trubinasca",
        "ele": "2996",
        "realCoord": {
            "lat": 46.2955839,
            "lon": 9.5784155
        }
    },
    {
        "id": 1372728979,
        "name": "Punta Allievi",
        "ele": "3121",
        "realCoord": {
            "lat": 46.2964487,
            "lon": 9.669391
        }
    },
    {
        "id": 1372729374,
        "name": "Pizzo dei Vanni Occidentale",
        "ele": "2733",
        "realCoord": {
            "lat": 46.3060487,
            "lon": 9.5555558
        }
    },
    {
        "id": 1372730340,
        "name": "Cima d'Aion",
        "ele": "2534",
        "realCoord": {
            "lat": 46.3375656,
            "lon": 9.162191
        }
    },
    {
        "id": 1372730715,
        "name": "Il Cappuccio",
        "ele": "2958",
        "realCoord": {
            "lat": 46.3436833,
            "lon": 9.7997795
        }
    },
    {
        "id": 1372731463,
        "name": "I Corn de Golin",
        "ele": "2350",
        "realCoord": {
            "lat": 46.3508039,
            "lon": 9.1604468
        }
    },
    {
        "id": 1372731986,
        "name": "Pizzo della Forcola Alta",
        "ele": "3394",
        "realCoord": {
            "lat": 46.3610853,
            "lon": 9.8323174
        }
    },
    {
        "id": 1372732219,
        "name": "Forcola Occidentale dei Gemelli",
        "ele": "3470",
        "realCoord": {
            "lat": 46.3630423,
            "lon": 9.8563322
        }
    },
    {
        "id": 1372732602,
        "name": "Gendarme",
        "ele": "3379",
        "realCoord": {
            "lat": 46.3673915,
            "lon": 9.8783889
        }
    },
    {
        "id": 1372732920,
        "name": "Roseg Pitschen",
        "ele": "3868",
        "realCoord": {
            "lat": 46.3732478,
            "lon": 9.8861104
        }
    },
    {
        "id": 1372732951,
        "name": "Bellavista Hauptgipfel",
        "ele": "3922",
        "realCoord": {
            "lat": 46.3737162,
            "lon": 9.9323045
        }
    },
    {
        "id": 1372732988,
        "name": "Bellavista Mittelgipfel West",
        "ele": "3890",
        "realCoord": {
            "lat": 46.3748487,
            "lon": 9.9344614
        }
    },
    {
        "id": 1372733072,
        "name": "Bellavista Ostgipfel",
        "ele": "3799",
        "realCoord": {
            "lat": 46.3775484,
            "lon": 9.9438103
        }
    },
    {
        "id": 1372734054,
        "name": "Piz de Corneira",
        "ele": "2465",
        "realCoord": {
            "lat": 46.4074833,
            "lon": 9.1585065
        }
    },
    {
        "id": 1372735094,
        "name": "Piz Deserto",
        "ele": "2505",
        "realCoord": {
            "lat": 46.4186606,
            "lon": 9.1489926
        }
    },
    {
        "id": 1372738883,
        "name": "Punta Scaramellini",
        "ele": "2865",
        "realCoord": {
            "lat": 46.5039614,
            "lon": 9.3733498
        }
    },
    {
        "id": 1372739465,
        "name": "Punta Adami",
        "ele": "2968",
        "realCoord": {
            "lat": 46.506214,
            "lon": 9.3671951
        }
    },
    {
        "id": 1372739662,
        "name": "Innerschwarzhorn",
        "ele": "2894",
        "realCoord": {
            "lat": 46.5071254,
            "lon": 9.3584105
        }
    },
    {
        "id": 1372754715,
        "name": "Piz Alvra",
        "ele": "3117",
        "realCoord": {
            "lat": 46.596753,
            "lon": 9.8310716
        }
    },
    {
        "id": 1372767799,
        "name": "Tguma",
        "ele": "2416",
        "realCoord": {
            "lat": 46.6255017,
            "lon": 9.3592911
        }
    },
    {
        "id": 1372782660,
        "name": "Um Su",
        "ele": "2357",
        "realCoord": {
            "lat": 46.6854872,
            "lon": 9.0879096
        }
    },
    {
        "id": 1372788778,
        "name": "Piz Mosch",
        "ele": "2924",
        "realCoord": {
            "lat": 46.712632,
            "lon": 9.6081992
        }
    },
    {
        "id": 1372798505,
        "name": "Amselflue Ostgipfel",
        "ele": "2768",
        "realCoord": {
            "lat": 46.7664184,
            "lon": 9.7329442
        }
    },
    {
        "id": 1372811032,
        "name": "Zenji",
        "ele": "2373",
        "realCoord": {
            "lat": 46.857261,
            "lon": 9.7462832
        }
    },
    {
        "id": 1372811123,
        "name": "Astserhöreli",
        "ele": "2262",
        "realCoord": {
            "lat": 46.8579879,
            "lon": 9.7142215
        }
    },
    {
        "id": 1372812536,
        "name": "Gromser Chopf",
        "ele": "2258",
        "realCoord": {
            "lat": 46.8679218,
            "lon": 9.602064
        }
    },
    {
        "id": 1387234588,
        "name": "Piz Arlas",
        "ele": "3367",
        "realCoord": {
            "lat": 46.3973604,
            "lon": 9.9836874
        }
    },
    {
        "id": 1393797960,
        "name": "Muottas da Schlarigna",
        "realCoord": {
            "lat": 46.4827676,
            "lon": 9.8795825
        }
    },
    {
        "id": 1409027373,
        "name": "Motta Palousa",
        "ele": "2143",
        "realCoord": {
            "lat": 46.6411482,
            "lon": 9.605464
        }
    },
    {
        "id": 1424663285,
        "name": "Rot Platte",
        "ele": "1505",
        "realCoord": {
            "lat": 46.8650531,
            "lon": 9.566641
        }
    },
    {
        "id": 1455741527,
        "name": "Piz de Ganan",
        "ele": "2414",
        "realCoord": {
            "lat": 46.3715931,
            "lon": 9.152997
        }
    },
    {
        "id": 1458176567,
        "name": "Cima del Vigon",
        "ele": "2559",
        "realCoord": {
            "lat": 46.4724315,
            "lon": 9.152736
        }
    },
    {
        "id": 1458176577,
        "name": "Marscholhorn / Piz Moésola",
        "ele": "2904",
        "realCoord": {
            "lat": 46.495043,
            "lon": 9.1429651
        }
    },
    {
        "id": 1458176606,
        "name": "Sasso di Luzzone",
        "ele": "2366",
        "realCoord": {
            "lat": 46.4519968,
            "lon": 9.0196726
        }
    },
    {
        "id": 1572774841,
        "name": "Blackter Flüe",
        "ele": "2320",
        "realCoord": {
            "lat": 46.8412944,
            "lon": 9.7267182
        }
    },
    {
        "id": 1572774858,
        "name": "Spitzenbüel",
        "ele": "2249",
        "realCoord": {
            "lat": 46.8473189,
            "lon": 9.7158399
        }
    },
    {
        "id": 1572894996,
        "name": "Girenspitz",
        "ele": "2185",
        "realCoord": {
            "lat": 46.8803933,
            "lon": 9.7643334
        }
    },
    {
        "id": 1572894999,
        "name": "Höch Stelli",
        "ele": "2252",
        "realCoord": {
            "lat": 46.8708252,
            "lon": 9.7464107
        }
    },
    {
        "id": 1652023332,
        "name": "Piz Colm",
        "ele": "2415",
        "realCoord": {
            "lat": 46.5590443,
            "lon": 9.6565089
        }
    },
    {
        "id": 1710017531,
        "name": "Fortezza",
        "ele": "3482",
        "realCoord": {
            "lat": 46.384493,
            "lon": 9.9425497
        }
    },
    {
        "id": 1710022922,
        "name": "Rifugi dals Chamuotsch",
        "ele": "3186",
        "realCoord": {
            "lat": 46.3960703,
            "lon": 9.9470741
        }
    },
    {
        "id": 1776658350,
        "name": "Redoch",
        "ele": "1435",
        "realCoord": {
            "lat": 46.1061045,
            "lon": 9.8988007
        }
    },
    {
        "id": 1974783927,
        "name": "Piz Plauncas",
        "ele": "2089",
        "realCoord": {
            "lat": 46.7366228,
            "lon": 9.1496338
        }
    },
    {
        "id": 2044756265,
        "name": "Punta Santa Maria",
        "ele": "2686",
        "realCoord": {
            "lat": 46.0545413,
            "lon": 9.9790801
        }
    },
    {
        "id": 2143060013,
        "name": "Piz Aela",
        "ele": "2159",
        "realCoord": {
            "lat": 46.3942944,
            "lon": 9.7085881
        }
    },
    {
        "id": 2171719803,
        "name": "Dosso Bello",
        "ele": "1979",
        "realCoord": {
            "lat": 46.1967765,
            "lon": 9.2517108
        }
    },
    {
        "id": 2173592570,
        "name": "Sasso Acuto",
        "ele": "2002",
        "realCoord": {
            "lat": 46.2091318,
            "lon": 9.2661859
        }
    },
    {
        "id": 2267755270,
        "name": "Monte dei Pizzoni, cima Est",
        "ele": "1282",
        "realCoord": {
            "lat": 46.0350587,
            "lon": 9.0864354
        }
    },
    {
        "id": 2291244648,
        "name": "Chlei Chrüz",
        "ele": "2103",
        "realCoord": {
            "lat": 46.9559802,
            "lon": 9.7814153
        }
    },
    {
        "id": 2299797798,
        "name": "Madrisa",
        "ele": "2770",
        "realCoord": {
            "lat": 46.941851,
            "lon": 9.8915791
        }
    },
    {
        "id": 2320704201,
        "name": "Tuma Castè",
        "ele": "638",
        "realCoord": {
            "lat": 46.8354036,
            "lon": 9.4477557
        }
    },
    {
        "id": 2320704212,
        "name": "Tuma Tschelle",
        "ele": "654",
        "realCoord": {
            "lat": 46.8321575,
            "lon": 9.4482681
        }
    },
    {
        "id": 2320704215,
        "name": "Tuma Falveng",
        "ele": "619",
        "realCoord": {
            "lat": 46.8312546,
            "lon": 9.453327
        }
    },
    {
        "id": 2323460418,
        "name": "Pizzo Caurga",
        "ele": "2421",
        "realCoord": {
            "lat": 46.2322681,
            "lon": 9.2409678
        }
    },
    {
        "id": 2334876171,
        "name": "Pizzo Coppa",
        "ele": "1420",
        "realCoord": {
            "lat": 46.0574543,
            "lon": 9.215779
        }
    },
    {
        "id": 2335743602,
        "name": "La Corna",
        "ele": "1531",
        "realCoord": {
            "lat": 46.0027283,
            "lon": 9.6507189
        }
    },
    {
        "id": 2377333922,
        "name": "Hora",
        "realCoord": {
            "lat": 46.610712,
            "lon": 9.2033408
        }
    },
    {
        "id": 2377824618,
        "name": "Hennasädel",
        "realCoord": {
            "lat": 46.569091,
            "lon": 9.145427
        }
    },
    {
        "id": 2377824622,
        "name": "Hohbüel",
        "realCoord": {
            "lat": 46.581904,
            "lon": 9.171017
        }
    },
    {
        "id": 2377859218,
        "name": "Brochenhorn",
        "realCoord": {
            "lat": 46.5411,
            "lon": 9.113967
        }
    },
    {
        "id": 2377859223,
        "name": "Dachberg",
        "realCoord": {
            "lat": 46.591866,
            "lon": 9.103401
        }
    },
    {
        "id": 2377859227,
        "name": "Hohberg",
        "realCoord": {
            "lat": 46.58398,
            "lon": 9.211539
        }
    },
    {
        "id": 2379541562,
        "name": "Bleschaturra",
        "realCoord": {
            "lat": 46.617469,
            "lon": 9.136574
        }
    },
    {
        "id": 2379541564,
        "name": "Breitengrat",
        "realCoord": {
            "lat": 46.625477,
            "lon": 9.136564
        }
    },
    {
        "id": 2379541566,
        "name": "Brochenhüreli",
        "realCoord": {
            "lat": 46.545782,
            "lon": 9.07975
        }
    },
    {
        "id": 2379541571,
        "name": "Garenstock",
        "realCoord": {
            "lat": 46.556305,
            "lon": 9.029397
        }
    },
    {
        "id": 2379541572,
        "name": "Gemskanzel",
        "realCoord": {
            "lat": 46.486732,
            "lon": 9.059659
        }
    },
    {
        "id": 2379541576,
        "name": "Hohberg",
        "realCoord": {
            "lat": 46.63268,
            "lon": 9.20432
        }
    },
    {
        "id": 2379541580,
        "name": "Paradieshüreli",
        "realCoord": {
            "lat": 46.488499,
            "lon": 9.077624
        }
    },
    {
        "id": 2379541586,
        "name": "Piz Val Nova",
        "realCoord": {
            "lat": 46.577277,
            "lon": 9.054348
        }
    },
    {
        "id": 2379541587,
        "name": "Piz la Capiala",
        "realCoord": {
            "lat": 46.578085,
            "lon": 9.063963
        }
    },
    {
        "id": 2379541590,
        "name": "Pizzo Cramorino",
        "realCoord": {
            "lat": 46.476372,
            "lon": 9.060586
        }
    },
    {
        "id": 2379541595,
        "name": "Röstihorn",
        "realCoord": {
            "lat": 46.521054,
            "lon": 9.118756
        }
    },
    {
        "id": 2379541599,
        "name": "Teischer",
        "realCoord": {
            "lat": 46.591229,
            "lon": 9.216932
        }
    },
    {
        "id": 2387642125,
        "name": "Croce del Sasso",
        "ele": "1812",
        "realCoord": {
            "lat": 46.1048512,
            "lon": 9.2185617
        }
    },
    {
        "id": 2401686853,
        "name": "Tenner Kreuz",
        "ele": "2020",
        "realCoord": {
            "lat": 46.7600307,
            "lon": 9.3331664
        }
    },
    {
        "id": 2402827680,
        "name": "Piz Balzet",
        "ele": "2869",
        "realCoord": {
            "lat": 46.3370347,
            "lon": 9.6641173
        }
    },
    {
        "id": 2402841041,
        "name": "Piz Bregaglia",
        "ele": "2961",
        "realCoord": {
            "lat": 46.356921,
            "lon": 9.6876625
        }
    },
    {
        "id": 2402851348,
        "name": "Pizzi dei Rossi",
        "ele": "3027",
        "realCoord": {
            "lat": 46.346708,
            "lon": 9.7179976
        }
    },
    {
        "id": 2402851349,
        "name": "Punta da l'Albigna",
        "ele": "2825",
        "realCoord": {
            "lat": 46.3202225,
            "lon": 9.6626747
        }
    },
    {
        "id": 2402852721,
        "name": "Scalin",
        "ele": "3164",
        "realCoord": {
            "lat": 46.3169769,
            "lon": 9.6867931
        }
    },
    {
        "id": 2402852722,
        "name": "Caciadur",
        "ele": "3040",
        "realCoord": {
            "lat": 46.322386,
            "lon": 9.6861494
        }
    },
    {
        "id": 2402865257,
        "name": "Ferro da Stiro",
        "ele": "2680",
        "realCoord": {
            "lat": 46.2994007,
            "lon": 9.6082366
        }
    },
    {
        "id": 2408042259,
        "name": "Cima di Venina",
        "ele": "2624",
        "realCoord": {
            "lat": 46.0461197,
            "lon": 9.8467648
        }
    },
    {
        "id": 2415030224,
        "name": "Corni di Sardegnana",
        "ele": "2420",
        "realCoord": {
            "lat": 46.0079127,
            "lon": 9.8270897
        }
    },
    {
        "id": 2416646186,
        "name": "Pizzo Rondenino",
        "ele": "2747",
        "realCoord": {
            "lat": 46.0457087,
            "lon": 9.8953276
        }
    },
    {
        "id": 2423075795,
        "name": "Mittaghorn",
        "ele": "2415",
        "realCoord": {
            "lat": 46.896528,
            "lon": 9.1757838
        }
    },
    {
        "id": 2428054179,
        "name": "Pizzo Sommavalle",
        "ele": "2813",
        "realCoord": {
            "lat": 46.3675992,
            "lon": 9.4242478
        }
    },
    {
        "id": 2432549423,
        "name": "Monte Colombarolo",
        "ele": "2309",
        "realCoord": {
            "lat": 46.0310641,
            "lon": 9.6007787
        }
    },
    {
        "id": 2435878126,
        "name": "Grüenhorn",
        "ele": "2501",
        "realCoord": {
            "lat": 46.8578902,
            "lon": 9.8325026
        }
    },
    {
        "id": 2440787621,
        "name": "Oberhoora",
        "realCoord": {
            "lat": 46.7342209,
            "lon": 9.3007207
        }
    },
    {
        "id": 2478052856,
        "name": "Piz Arlos",
        "ele": "2696",
        "realCoord": {
            "lat": 46.5588186,
            "lon": 9.5838123
        }
    },
    {
        "id": 2478052859,
        "name": "Piz Spegnas",
        "ele": "2620",
        "realCoord": {
            "lat": 46.5434972,
            "lon": 9.5971146
        }
    },
    {
        "id": 2510194001,
        "name": "Hohberg",
        "ele": "2244",
        "realCoord": {
            "lat": 46.9606323,
            "lon": 9.1289497
        }
    },
    {
        "id": 2511872133,
        "name": "Cima Fariolo",
        "ele": "2180",
        "realCoord": {
            "lat": 46.3220999,
            "lon": 9.3308108
        }
    },
    {
        "id": 2538687091,
        "name": "Mot Scalotta",
        "ele": "2444",
        "realCoord": {
            "lat": 46.43809,
            "lon": 9.64236
        }
    },
    {
        "id": 2538708941,
        "name": "Talihorn",
        "ele": "3164",
        "realCoord": {
            "lat": 46.47847,
            "lon": 9.56137
        }
    },
    {
        "id": 2538719466,
        "name": "Piz Campagnun",
        "ele": "2826",
        "realCoord": {
            "lat": 46.49534,
            "lon": 9.69427
        }
    },
    {
        "id": 2566627340,
        "name": "Got Davains",
        "ele": "1768",
        "realCoord": {
            "lat": 46.6903701,
            "lon": 9.6559683
        }
    },
    {
        "id": 2566627387,
        "name": "Rumbetel",
        "ele": "1735",
        "realCoord": {
            "lat": 46.6881885,
            "lon": 9.6523211
        }
    },
    {
        "id": 2607524031,
        "name": "Hörnli",
        "ele": "2496",
        "realCoord": {
            "lat": 46.7724557,
            "lon": 9.6229416
        }
    },
    {
        "id": 2622201093,
        "name": "Punta Placida",
        "ele": "2681",
        "realCoord": {
            "lat": 46.2299064,
            "lon": 9.963365
        }
    },
    {
        "id": 2622211050,
        "name": "Cima di Finale",
        "ele": "2611",
        "realCoord": {
            "lat": 46.2208963,
            "lon": 9.988588
        }
    },
    {
        "id": 2663265181,
        "name": "Wannenspitz",
        "ele": "1969",
        "realCoord": {
            "lat": 46.9182528,
            "lon": 9.643327
        }
    },
    {
        "id": 2869436456,
        "name": "Colmo di San Bernardo",
        "ele": "1616",
        "realCoord": {
            "lat": 46.0693532,
            "lon": 9.0778475
        }
    },
    {
        "id": 2870915830,
        "name": "Monte Segor",
        "ele": "2097",
        "realCoord": {
            "lat": 46.1213053,
            "lon": 9.0787149
        }
    },
    {
        "id": 2894271417,
        "name": "Segnale",
        "ele": "2183",
        "realCoord": {
            "lat": 46.0039675,
            "lon": 9.8956873
        }
    },
    {
        "id": 2896325248,
        "name": "Büelenberg",
        "ele": "2117",
        "realCoord": {
            "lat": 46.7994947,
            "lon": 9.8701167
        }
    },
    {
        "id": 2911098291,
        "name": "Piz di Agnon",
        "ele": "2208",
        "realCoord": {
            "lat": 46.2430531,
            "lon": 9.217813
        }
    },
    {
        "id": 2911098294,
        "name": "Punta Michele",
        "ele": "2516",
        "realCoord": {
            "lat": 46.2295092,
            "lon": 9.2246159
        }
    },
    {
        "id": 2936856608,
        "name": "Quota 2260m",
        "realCoord": {
            "lat": 46.355364,
            "lon": 9.4970591
        }
    },
    {
        "id": 2948421868,
        "name": "Tüfels Chilchli",
        "ele": "2460",
        "realCoord": {
            "lat": 46.8860876,
            "lon": 9.4668226
        }
    },
    {
        "id": 2948436624,
        "name": "Taminser Calanda",
        "ele": "2390",
        "realCoord": {
            "lat": 46.8676662,
            "lon": 9.437507
        }
    },
    {
        "id": 2972671738,
        "name": "Monte Boris",
        "ele": "2505",
        "realCoord": {
            "lat": 46.2595557,
            "lon": 9.5764066
        }
    },
    {
        "id": 2995438369,
        "name": "Drachenberg",
        "ele": "2605",
        "realCoord": {
            "lat": 46.9279645,
            "lon": 9.4121513
        }
    },
    {
        "id": 2999434607,
        "name": "Motton",
        "ele": "2739",
        "realCoord": {
            "lat": 46.3491911,
            "lon": 9.0884513
        }
    },
    {
        "id": 3006482670,
        "name": "Piz Piotta",
        "ele": "3121",
        "realCoord": {
            "lat": 46.4488645,
            "lon": 9.0923099
        }
    },
    {
        "id": 3052424126,
        "name": "First",
        "ele": "1997",
        "realCoord": {
            "lat": 46.9782102,
            "lon": 9.0061276
        }
    },
    {
        "id": 3093168132,
        "name": "Cima di Cavislone",
        "ele": "2539",
        "realCoord": {
            "lat": 46.2187889,
            "lon": 9.6020302
        }
    },
    {
        "id": 3093173951,
        "name": "Monte Lobbia",
        "ele": "2376",
        "realCoord": {
            "lat": 46.2225033,
            "lon": 9.6109787
        }
    },
    {
        "id": 3093179455,
        "name": "Cima Calvo Est",
        "ele": "2876",
        "realCoord": {
            "lat": 46.2263273,
            "lon": 9.5658093
        }
    },
    {
        "id": 3093290332,
        "name": "Punta di Schingino",
        "ele": "2498",
        "realCoord": {
            "lat": 46.2568011,
            "lon": 9.6077271
        }
    },
    {
        "id": 3143676746,
        "name": "Quota 2197m",
        "realCoord": {
            "lat": 46.246321,
            "lon": 9.2817596
        }
    },
    {
        "id": 3150444268,
        "name": "Pizzo Cavrin Est",
        "ele": "2647",
        "realCoord": {
            "lat": 46.0646846,
            "lon": 9.9368749
        }
    },
    {
        "id": 3153271358,
        "name": "Torrione del Salto",
        "ele": "2640",
        "realCoord": {
            "lat": 46.0544902,
            "lon": 9.9069479
        }
    },
    {
        "id": 3153331081,
        "name": "Cima d'Avert",
        "ele": "2616",
        "realCoord": {
            "lat": 46.0572189,
            "lon": 9.995348
        }
    },
    {
        "id": 3224831231,
        "name": "Monte Pascaniello",
        "ele": "2084",
        "realCoord": {
            "lat": 46.0104932,
            "lon": 9.5567277
        }
    },
    {
        "id": 3267561312,
        "name": "Montebello",
        "ele": "2230",
        "realCoord": {
            "lat": 46.0487972,
            "lon": 9.7853988
        }
    },
    {
        "id": 3296372572,
        "name": "Horn",
        "ele": "2272",
        "realCoord": {
            "lat": 46.8574869,
            "lon": 9.7213128
        }
    },
    {
        "id": 3296372670,
        "name": "Schönbüel",
        "ele": "2306",
        "realCoord": {
            "lat": 46.8557231,
            "lon": 9.732779
        }
    },
    {
        "id": 3310229575,
        "name": "Bocktschingel",
        "ele": "2156",
        "realCoord": {
            "lat": 46.8638557,
            "lon": 9.7178337
        }
    },
    {
        "id": 3310229610,
        "name": "Schönbüel",
        "ele": "2272",
        "realCoord": {
            "lat": 46.8726906,
            "lon": 9.6882573
        }
    },
    {
        "id": 3326747921,
        "name": "Motto della Croce",
        "ele": "1887",
        "realCoord": {
            "lat": 46.2075723,
            "lon": 9.3408055
        }
    },
    {
        "id": 3337023742,
        "name": "La Motta",
        "ele": "2166",
        "realCoord": {
            "lat": 46.438617,
            "lon": 9.6552678
        }
    },
    {
        "id": 3337464954,
        "name": "Bleis Lunga",
        "ele": "2445",
        "realCoord": {
            "lat": 46.4322745,
            "lon": 9.6708487
        }
    },
    {
        "id": 3380920923,
        "name": "Mataron del Matro",
        "ele": "1551",
        "realCoord": {
            "lat": 46.1171612,
            "lon": 9.0358698
        }
    },
    {
        "id": 3380938196,
        "name": "Cima Calescio",
        "ele": "2035",
        "realCoord": {
            "lat": 46.1347206,
            "lon": 9.0512791
        }
    },
    {
        "id": 3380942643,
        "name": "Mataron dei Cugnoli",
        "ele": "1433",
        "realCoord": {
            "lat": 46.1174977,
            "lon": 9.0259424
        }
    },
    {
        "id": 3390949897,
        "name": "Muntiscè, anticima SE",
        "ele": "2510",
        "realCoord": {
            "lat": 46.5919438,
            "lon": 9.9085902
        }
    },
    {
        "id": 3390949898,
        "name": "Piz Cotschen",
        "ele": "3195",
        "realCoord": {
            "lat": 46.6149086,
            "lon": 9.8796338
        }
    },
    {
        "id": 3425203843,
        "name": "Cuolm d'Mez",
        "ele": "2983",
        "realCoord": {
            "lat": 46.4652723,
            "lon": 9.8577251
        }
    },
    {
        "id": 3425203846,
        "name": "Il Corn",
        "ele": "2945",
        "realCoord": {
            "lat": 46.4685593,
            "lon": 9.8601954
        }
    },
    {
        "id": 3425203847,
        "name": "Piz da Staz",
        "ele": "2847",
        "realCoord": {
            "lat": 46.473064,
            "lon": 9.8701721
        }
    },
    {
        "id": 3425203848,
        "name": "Piz da l'Ova Cotschna",
        "ele": "2716",
        "realCoord": {
            "lat": 46.4687603,
            "lon": 9.8463897
        }
    },
    {
        "id": 3435138026,
        "name": "Saaser Calanda",
        "ele": "2556",
        "realCoord": {
            "lat": 46.9295849,
            "lon": 9.845217
        }
    },
    {
        "id": 3443394858,
        "name": "Mottan",
        "ele": "1798",
        "realCoord": {
            "lat": 46.2766608,
            "lon": 9.13001
        }
    },
    {
        "id": 3443394861,
        "name": "Piz di Renten - Cima Nord",
        "ele": "1973",
        "realCoord": {
            "lat": 46.2869154,
            "lon": 9.1374035
        }
    },
    {
        "id": 3453702647,
        "name": "Chlin Hureli",
        "ele": "2798",
        "realCoord": {
            "lat": 46.4431596,
            "lon": 9.5057279
        }
    },
    {
        "id": 3453811789,
        "name": "Punta 2969",
        "ele": "2969",
        "realCoord": {
            "lat": 46.4312869,
            "lon": 9.5178574
        }
    },
    {
        "id": 3455467184,
        "name": "Coren",
        "ele": "2240",
        "realCoord": {
            "lat": 46.2191163,
            "lon": 9.9147359
        }
    },
    {
        "id": 3455472000,
        "name": "Sassi Bianchi",
        "ele": "2471",
        "realCoord": {
            "lat": 46.2362544,
            "lon": 9.9287354
        }
    },
    {
        "id": 3525431349,
        "name": "Cima della Teggiola",
        "ele": "2574",
        "realCoord": {
            "lat": 46.3029739,
            "lon": 9.5509429
        }
    },
    {
        "id": 3525431351,
        "name": "Denc dal Luf",
        "ele": "2172",
        "realCoord": {
            "lat": 46.3138325,
            "lon": 9.5508191
        }
    },
    {
        "id": 3548365682,
        "name": "Piz de Front",
        "ele": "2234",
        "realCoord": {
            "lat": 46.397621,
            "lon": 9.195715
        }
    },
    {
        "id": 3552188920,
        "name": "Pizzo Bidensc",
        "ele": "2265",
        "realCoord": {
            "lat": 46.3675056,
            "lon": 9.0701365
        }
    },
    {
        "id": 3577377930,
        "name": "Cima SW Malvedello",
        "ele": "2585",
        "realCoord": {
            "lat": 46.1883082,
            "lon": 9.5389355
        }
    },
    {
        "id": 3577377931,
        "name": "I tre Cornini",
        "ele": "2021",
        "realCoord": {
            "lat": 46.1767685,
            "lon": 9.550496
        }
    },
    {
        "id": 3579789697,
        "name": "Guglie d'Altare",
        "ele": "3036",
        "realCoord": {
            "lat": 46.47054,
            "lon": 9.416213
        }
    },
    {
        "id": 3608656311,
        "name": "Pizzo S.Giovanni",
        "ele": "2048",
        "realCoord": {
            "lat": 46.0045327,
            "lon": 9.5264819
        }
    },
    {
        "id": 3625632859,
        "name": "Pes Gerna",
        "ele": "2562",
        "realCoord": {
            "lat": 46.0398078,
            "lon": 9.8318647
        }
    },
    {
        "id": 3642932799,
        "name": "Monte Azzaredo",
        "ele": "2112",
        "realCoord": {
            "lat": 46.0552592,
            "lon": 9.6679911
        }
    },
    {
        "id": 3658573839,
        "name": "Piz dal Pal",
        "ele": "2618",
        "realCoord": {
            "lat": 46.3320137,
            "lon": 9.6604909
        }
    },
    {
        "id": 3683556632,
        "name": "Matoch dul Petuun",
        "ele": "2305",
        "realCoord": {
            "lat": 46.085457,
            "lon": 9.4108686
        }
    },
    {
        "id": 3702540057,
        "name": "Muttans",
        "ele": "1997",
        "realCoord": {
            "lat": 46.5757787,
            "lon": 9.4085239
        }
    },
    {
        "id": 3702540059,
        "name": "Mut",
        "ele": "1509",
        "realCoord": {
            "lat": 46.5720764,
            "lon": 9.411603
        }
    },
    {
        "id": 3712323427,
        "name": "Schlappiner Spitze",
        "ele": "2442",
        "realCoord": {
            "lat": 46.9232982,
            "lon": 9.9162072
        }
    },
    {
        "id": 3732019441,
        "name": "La Margneta",
        "ele": "2785",
        "realCoord": {
            "lat": 46.3908637,
            "lon": 9.7231285
        }
    },
    {
        "id": 3732066443,
        "name": "Piz Mezzaun",
        "ele": "2963",
        "realCoord": {
            "lat": 46.5697343,
            "lon": 9.9652219
        }
    },
    {
        "id": 3744663779,
        "name": "Mot da Sterlèra",
        "ele": "2218",
        "realCoord": {
            "lat": 46.2279126,
            "lon": 9.2650994
        }
    },
    {
        "id": 3754515338,
        "name": "Forcel",
        "ele": "2577",
        "realCoord": {
            "lat": 46.3173854,
            "lon": 9.0856521
        }
    },
    {
        "id": 3754515341,
        "name": "Mottone",
        "ele": "2215",
        "realCoord": {
            "lat": 46.3187236,
            "lon": 9.0902126
        }
    },
    {
        "id": 3783174508,
        "name": "Piz Padella",
        "ele": "2857",
        "realCoord": {
            "lat": 46.5325111,
            "lon": 9.8363166
        }
    },
    {
        "id": 3784707938,
        "name": "Bastione di Stavel",
        "ele": "1942",
        "realCoord": {
            "lat": 46.2086571,
            "lon": 9.2475458
        }
    },
    {
        "id": 3784707940,
        "name": "Monte Piaghedo",
        "ele": "1454",
        "realCoord": {
            "lat": 46.1813332,
            "lon": 9.2504446
        }
    },
    {
        "id": 3791426167,
        "name": "Gelbchopf",
        "ele": "2220",
        "realCoord": {
            "lat": 46.9350361,
            "lon": 9.1314587
        }
    },
    {
        "id": 3794710488,
        "name": "Quota 2563m",
        "ele": "2563",
        "realCoord": {
            "lat": 46.4757933,
            "lon": 9.8760654
        }
    },
    {
        "id": 3808357199,
        "name": "Quota 1734m",
        "ele": "1734",
        "realCoord": {
            "lat": 46.214208,
            "lon": 9.3964345
        }
    },
    {
        "id": 3968279113,
        "name": "Beverin Pintg",
        "ele": "2591",
        "realCoord": {
            "lat": 46.6443265,
            "lon": 9.3683086
        }
    },
    {
        "id": 4020497774,
        "name": "Alpe Palù",
        "ele": "2080",
        "realCoord": {
            "lat": 46.2875875,
            "lon": 9.8630798
        }
    },
    {
        "id": 4021936689,
        "name": "Brämabüel",
        "ele": "2492",
        "realCoord": {
            "lat": 46.7804483,
            "lon": 9.8493205
        }
    },
    {
        "id": 4028375895,
        "name": "Motton",
        "ele": "2155",
        "realCoord": {
            "lat": 46.4544654,
            "lon": 9.1705216
        }
    },
    {
        "id": 4032463147,
        "name": "Versitspitz",
        "realCoord": {
            "lat": 46.8877224,
            "lon": 9.9038488
        }
    },
    {
        "id": 4055582902,
        "name": "Spitzenbüel",
        "ele": "2194",
        "realCoord": {
            "lat": 46.977312,
            "lon": 9.8575888
        }
    },
    {
        "id": 4114046368,
        "name": "Cima di Lago",
        "ele": "2496",
        "realCoord": {
            "lat": 46.3447326,
            "lon": 9.0143579
        }
    },
    {
        "id": 4114046371,
        "name": "Motta d'Osogna",
        "ele": "2524",
        "realCoord": {
            "lat": 46.3436415,
            "lon": 9.0273224
        }
    },
    {
        "id": 4114046373,
        "name": "Mottone",
        "ele": "2372",
        "realCoord": {
            "lat": 46.356585,
            "lon": 9.0221669
        }
    },
    {
        "id": 4114046374,
        "name": "Pizzo Magn",
        "ele": "2329",
        "realCoord": {
            "lat": 46.3613598,
            "lon": 9.0086964
        }
    },
    {
        "id": 4149670488,
        "name": "Sasso Guidà",
        "ele": "1713",
        "realCoord": {
            "lat": 46.1827984,
            "lon": 9.0847422
        }
    },
    {
        "id": 4166385286,
        "name": "Sunnehöreli",
        "ele": "2163",
        "realCoord": {
            "lat": 46.988434,
            "lon": 9.1869657
        }
    },
    {
        "id": 4201954514,
        "name": "Bel Motto",
        "ele": "2156",
        "realCoord": {
            "lat": 46.3847903,
            "lon": 9.332708
        }
    },
    {
        "id": 4254049189,
        "name": "Bassa d'Ogè",
        "ele": "1439",
        "realCoord": {
            "lat": 46.056445,
            "lon": 9.0347092
        }
    },
    {
        "id": 4365323712,
        "name": "Crap Carschenna",
        "ele": "1110",
        "realCoord": {
            "lat": 46.693246,
            "lon": 9.4576889
        }
    },
    {
        "id": 4420198702,
        "name": "Quota 2073",
        "realCoord": {
            "lat": 46.2458858,
            "lon": 9.3097478
        }
    },
    {
        "id": 4440492324,
        "name": "Pizzo Cernello",
        "realCoord": {
            "lat": 46.0048123,
            "lon": 9.879191
        }
    },
    {
        "id": 4529240711,
        "name": "Plazzas",
        "ele": "681",
        "realCoord": {
            "lat": 46.8106622,
            "lon": 9.4130593
        }
    },
    {
        "id": 4550444956,
        "name": "Cime di Noga",
        "ele": "1511",
        "realCoord": {
            "lat": 46.0520799,
            "lon": 9.0605685
        }
    },
    {
        "id": 4687112358,
        "name": "Mot de l'Omascioo",
        "realCoord": {
            "lat": 46.3005431,
            "lon": 9.5034461
        }
    },
    {
        "id": 4711384305,
        "name": "Motta Piana (Scima di Val Piscia)",
        "ele": "1158",
        "realCoord": {
            "lat": 46.2515306,
            "lon": 9.4440573
        }
    },
    {
        "id": 4711384306,
        "name": "Pizzo Torricchio",
        "ele": "1752",
        "realCoord": {
            "lat": 46.2579068,
            "lon": 9.4566744
        }
    },
    {
        "id": 4713371849,
        "name": "Sasso Canin",
        "ele": "1465",
        "realCoord": {
            "lat": 46.2759876,
            "lon": 9.4249066
        }
    },
    {
        "id": 4714871975,
        "name": "Sasso dell'Orla",
        "ele": "988",
        "realCoord": {
            "lat": 46.2705158,
            "lon": 9.4210026
        }
    },
    {
        "id": 4714893436,
        "name": "Cima Scarpe",
        "ele": "1376",
        "realCoord": {
            "lat": 46.2637076,
            "lon": 9.4305267
        }
    },
    {
        "id": 4715200438,
        "name": "Croce di Matra",
        "ele": "1809",
        "realCoord": {
            "lat": 46.2828798,
            "lon": 9.4299331
        }
    },
    {
        "id": 4731829423,
        "name": "Hougratli",
        "ele": "2485",
        "realCoord": {
            "lat": 46.4618801,
            "lon": 9.4945179
        }
    },
    {
        "id": 4870018176,
        "name": "Mugmol",
        "ele": "2625",
        "realCoord": {
            "lat": 46.4318636,
            "lon": 9.5798877
        }
    },
    {
        "id": 4870018178,
        "name": "Wengahorn",
        "ele": "2849",
        "realCoord": {
            "lat": 46.4330208,
            "lon": 9.5677158
        }
    },
    {
        "id": 4883742841,
        "name": "Cima Grande",
        "ele": "1579",
        "realCoord": {
            "lat": 46.2290812,
            "lon": 9.1629841
        }
    },
    {
        "id": 4885769657,
        "name": "Er di Caslet",
        "ele": "896",
        "realCoord": {
            "lat": 46.2152341,
            "lon": 9.1605733
        }
    },
    {
        "id": 4924177630,
        "name": "q 1571,5",
        "ele": "1571,5",
        "realCoord": {
            "lat": 46.2779174,
            "lon": 9.4252124
        }
    },
    {
        "id": 4976179761,
        "name": "Cima dell'Oress",
        "ele": "1705",
        "realCoord": {
            "lat": 46.06111,
            "lon": 9.05865
        }
    },
    {
        "id": 5086364633,
        "name": "Pic",
        "ele": "1867",
        "realCoord": {
            "lat": 46.0419287,
            "lon": 9.5506816
        }
    },
    {
        "id": 5128550427,
        "name": "Piz de Romonton",
        "ele": "2214",
        "realCoord": {
            "lat": 46.3788904,
            "lon": 9.1401453
        }
    },
    {
        "id": 5128550464,
        "name": "Mottan",
        "ele": "2166",
        "realCoord": {
            "lat": 46.390149,
            "lon": 9.1436657
        }
    }
]