[
    {
        "id": 26862690,
        "name": "Cima Cadi",
        "ele": "2448",
        "realCoord": {
            "lat": 46.2233481,
            "lon": 10.2947077
        },
        "group": 5346,
        "estimatedCoord": {
            "lat": 46.22333333333334,
            "lon": 10.294499799919969
        },
        "distance": 16.082887775680536
    },
    {
        "id": 26862715,
        "name": "Cima Viola",
        "ele": "3374",
        "realCoord": {
            "lat": 46.383704,
            "lon": 10.1966075
        },
        "group": 5188,
        "estimatedCoord": {
            "lat": 46.383750000000006,
            "lon": 10.196250000000001
        },
        "distance": 27.903778569229562
    },
    {
        "id": 26863030,
        "name": "Grigna Settentrionale",
        "ele": "2410",
        "realCoord": {
            "lat": 45.9533709,
            "lon": 9.3877024
        },
        "group": 1371,
        "estimatedCoord": {
            "lat": 45.95291666666666,
            "lon": 9.387916666666666
        },
        "distance": 53.171981812720425
    },
    {
        "id": 26863780,
        "name": "Monte Alben",
        "ele": "2019",
        "realCoord": {
            "lat": 45.8622222,
            "lon": 9.7819444
        },
        "group": 1489,
        "estimatedCoord": {
            "lat": 45.86208354177088,
            "lon": 9.78180548607637
        },
        "distance": 18.805513281220673
    },
    {
        "id": 26863783,
        "name": "Monte Altissimo",
        "ele": "1703",
        "realCoord": {
            "lat": 45.9141667,
            "lon": 10.1733333
        },
        "group": 1640,
        "estimatedCoord": {
            "lat": 45.91452370751214,
            "lon": 10.173809625821194
        },
        "distance": 54.181305987068264
    },
    {
        "id": 26863814,
        "name": "Monte Cassa del Ferro",
        "ele": "3100",
        "realCoord": {
            "lat": 46.5786065,
            "lon": 10.2016737
        },
        "group": 5204,
        "estimatedCoord": {
            "lat": 46.57875,
            "lon": 10.201666666666666
        },
        "distance": 15.970536401027967
    },
    {
        "id": 26863823,
        "name": "Monte Cevedale",
        "ele": "3769",
        "realCoord": {
            "lat": 46.4436507,
            "lon": 10.6165899
        },
        "group": 5727,
        "estimatedCoord": {
            "lat": 46.44400019996,
            "lon": 10.617000099980004
        },
        "distance": 49.99701918045057
    },
    {
        "id": 26863842,
        "name": "Monte Croce di Muggio",
        "ele": "1799",
        "realCoord": {
            "lat": 46.0507847,
            "lon": 9.3570292
        },
        "group": 4002,
        "estimatedCoord": {
            "lat": 46.05083333333334,
            "lon": 9.357083333333334
        },
        "distance": 6.835594050962336
    },
    {
        "id": 26863867,
        "name": "Monte Frisozzo",
        "ele": "2897",
        "realCoord": {
            "lat": 46.0242862,
            "lon": 10.4487549
        },
        "group": 5514,
        "estimatedCoord": {
            "lat": 46.02472208333334,
            "lon": 10.448888750000002
        },
        "distance": 49.573067447718316
    },
    {
        "id": 26863896,
        "name": "Monte Manos",
        "ele": "1516",
        "realCoord": {
            "lat": 45.7369492,
            "lon": 10.5386059
        },
        "group": 1815,
        "estimatedCoord": {
            "lat": 45.737166866746705,
            "lon": 10.538666466586635
        },
        "distance": 24.663390015287696
    },
    {
        "id": 26863913,
        "name": "Monte Nudo",
        "ele": "1235",
        "realCoord": {
            "lat": 45.9225058,
            "lon": 8.6894385
        },
        "group": 1267,
        "estimatedCoord": {
            "lat": 45.9225,
            "lon": 8.68875
        },
        "distance": 53.27651560176996
    },
    {
        "id": 26863933,
        "name": "Monte Pettini",
        "ele": "2932",
        "realCoord": {
            "lat": 46.5361065,
            "lon": 10.2275001
        },
        "group": 5252,
        "estimatedCoord": {
            "lat": 46.535833333333336,
            "lon": 10.2272225
        },
        "distance": 37.07242891872348
    },
    {
        "id": 26863937,
        "name": "Monte Pizzocolo",
        "ele": "1581",
        "realCoord": {
            "lat": 45.673001,
            "lon": 10.5919827
        },
        "group": 1838,
        "estimatedCoord": {
            "lat": 45.672916666666666,
            "lon": 10.591666666666667
        },
        "distance": 26.293015615753628
    },
    {
        "id": 26863940,
        "name": "Monte Pora",
        "ele": "1880",
        "realCoord": {
            "lat": 45.8852778,
            "lon": 10.1094444
        },
        "group": 1606,
        "estimatedCoord": {
            "lat": 45.885416666666664,
            "lon": 10.109166666666667
        },
        "distance": 26.476467672441224
    },
    {
        "id": 26863959,
        "name": "Monte San Primo",
        "ele": "1681",
        "realCoord": {
            "lat": 45.9154362,
            "lon": 9.2098416
        },
        "group": 1338,
        "estimatedCoord": {
            "lat": 45.915416666666665,
            "lon": 9.21
        },
        "distance": 12.448811082935189
    },
    {
        "id": 26864010,
        "name": "Monte Aviolo",
        "ele": "2881",
        "realCoord": {
            "lat": 46.1852902,
            "lon": 10.398576
        },
        "group": 5448,
        "estimatedCoord": {
            "lat": 46.18472222222222,
            "lon": 10.398888888888887
        },
        "distance": 67.61495692115298
    },
    {
        "id": 26864303,
        "name": "Piz Paradisin",
        "ele": "3302",
        "realCoord": {
            "lat": 46.4260109,
            "lon": 10.1172543
        },
        "group": 5054,
        "estimatedCoord": {
            "lat": 46.42583333333334,
            "lon": 10.1175
        },
        "distance": 27.29381427902435
    },
    {
        "id": 26864315,
        "name": "Pizzo Arera",
        "ele": "2512",
        "realCoord": {
            "lat": 45.9345913,
            "lon": 9.8158164
        },
        "group": 1504,
        "estimatedCoord": {
            "lat": 45.93450009998001,
            "lon": 9.81616676664667
        },
        "distance": 28.93983920627729
    },
    {
        "id": 26864318,
        "name": "Pizzo Cengalo",
        "ele": "3368",
        "realCoord": {
            "lat": 46.295,
            "lon": 9.6019444
        },
        "group": 4263,
        "estimatedCoord": {
            "lat": 46.294722500000006,
            "lon": 9.60125
        },
        "distance": 61.65066522494232
    },
    {
        "id": 26864327,
        "name": "Pizzo Stella",
        "ele": "3163",
        "realCoord": {
            "lat": 46.3814813,
            "lon": 9.4214446
        },
        "group": 4064,
        "estimatedCoord": {
            "lat": 46.38138902784726,
            "lon": 9.421666666666667
        },
        "distance": 19.89193516116609
    },
    {
        "id": 26864328,
        "name": "Pizzo Tambo",
        "ele": "3278",
        "realCoord": {
            "lat": 46.4970328,
            "lon": 9.2833549
        },
        "group": 3919,
        "estimatedCoord": {
            "lat": 46.496833233293316,
            "lon": 9.28266656662665
        },
        "distance": 57.18935198815933
    },
    {
        "id": 278891915,
        "name": "San Quirico",
        "ele": "400",
        "realCoord": {
            "lat": 45.7862298,
            "lon": 8.573023
        },
        "group": 1260,
        "estimatedCoord": {
            "lat": 45.78541666666667,
            "lon": 8.5722225
        },
        "distance": 109.7065850101816
    },
    {
        "id": 282379065,
        "name": "Monte Cereto",
        "ele": "936",
        "realCoord": {
            "lat": 45.7648039,
            "lon": 9.7726854
        },
        "group": 1485,
        "estimatedCoord": {
            "lat": 45.765,
            "lon": 9.77125
        },
        "distance": 113.4947139991391
    },
    {
        "id": 289568860,
        "name": "Monte Lema",
        "ele": "1624",
        "realCoord": {
            "lat": 46.0405871,
            "lon": 8.8327027
        },
        "group": 3373,
        "estimatedCoord": {
            "lat": 46.04055555555555,
            "lon": 8.831944444444444
        },
        "distance": 58.65000180754863
    },
    {
        "id": 307230906,
        "name": "Pizzo Zerna",
        "ele": "2572",
        "realCoord": {
            "lat": 46.048351,
            "lon": 9.8306511
        },
        "group": 4607,
        "estimatedCoord": {
            "lat": 46.04888875,
            "lon": 9.830139166666667
        },
        "distance": 71.69084408932376
    },
    {
        "id": 307271040,
        "name": "Monte Sissone",
        "ele": "3327",
        "realCoord": {
            "lat": 46.2928922,
            "lon": 9.7144877
        },
        "group": 4423,
        "estimatedCoord": {
            "lat": 46.29299990002,
            "lon": 9.714333133373326
        },
        "distance": 16.870956568446474
    },
    {
        "id": 312595864,
        "name": "Monte Chiusarella",
        "ele": "913",
        "realCoord": {
            "lat": 45.8733695,
            "lon": 8.8143012
        },
        "group": 1276,
        "estimatedCoord": {
            "lat": 45.8725,
            "lon": 8.814166666666667
        },
        "distance": 97.27391689697025
    },
    {
        "id": 355313919,
        "name": "Canto Alto",
        "ele": "1146",
        "realCoord": {
            "lat": 45.770042,
            "lon": 9.669942
        },
        "group": 1451,
        "estimatedCoord": {
            "lat": 45.77000000000001,
            "lon": 9.6702775
        },
        "distance": 26.446413818226233
    },
    {
        "id": 355730402,
        "name": "Pizzo dei Tre Signori",
        "ele": "2553",
        "realCoord": {
            "lat": 46.011533,
            "lon": 9.527442
        },
        "group": 4184,
        "estimatedCoord": {
            "lat": 46.01187484371093,
            "lon": 9.52770817704426
        },
        "distance": 43.22698862878616
    },
    {
        "id": 387417030,
        "name": "Monte Adamello",
        "ele": "3539",
        "realCoord": {
            "lat": 46.1561611,
            "lon": 10.4963321
        },
        "group": 5574,
        "estimatedCoord": {
            "lat": 46.15555569451393,
            "lon": 10.496527847256962
        },
        "distance": 69.00746879734191
    },
    {
        "id": 394921978,
        "name": "Punta San Matteo",
        "ele": "3678",
        "realCoord": {
            "lat": 46.37787,
            "lon": 10.56712
        },
        "group": 5660,
        "estimatedCoord": {
            "lat": 46.37770817704426,
            "lon": 10.567916354088524
        },
        "distance": 63.70589725552908
    },
    {
        "id": 394921981,
        "name": "Punta Cadini",
        "ele": "3524",
        "realCoord": {
            "lat": 46.3775927,
            "lon": 10.5992719
        },
        "group": 5709,
        "estimatedCoord": {
            "lat": 46.37749999999999,
            "lon": 10.59988100343053
        },
        "distance": 47.8650554085807
    },
    {
        "id": 394924264,
        "name": "Pizzo Tresero",
        "ele": "3594",
        "realCoord": {
            "lat": 46.3905148,
            "lon": 10.5431963
        },
        "group": 5622,
        "estimatedCoord": {
            "lat": 46.39041666666667,
            "lon": 10.543333333333333
        },
        "distance": 15.154910940168039
    },
    {
        "id": 410169955,
        "name": "Surettahorn - Pizzo Suretta",
        "ele": "3027",
        "realCoord": {
            "lat": 46.5095342,
            "lon": 9.3623964
        },
        "group": 4007,
        "estimatedCoord": {
            "lat": 46.509166666666665,
            "lon": 9.363750000000001
        },
        "distance": 111.39393182934901
    },
    {
        "id": 410443664,
        "name": "Cima di Lago",
        "ele": "3082",
        "realCoord": {
            "lat": 46.3763695,
            "lon": 9.4610761
        },
        "group": 4090,
        "estimatedCoord": {
            "lat": 46.37650019996001,
            "lon": 9.46133323335333
        },
        "distance": 24.5093386434667
    },
    {
        "id": 414212010,
        "name": "Sasso Palazzo",
        "ele": "1445",
        "realCoord": {
            "lat": 46.0539819,
            "lon": 9.0294257
        },
        "group": 3623,
        "estimatedCoord": {
            "lat": 46.053666466586634,
            "lon": 9.030333133253304
        },
        "distance": 78.34197647546544
    },
    {
        "id": 415867212,
        "name": "Monte Boglia",
        "ele": "1516",
        "realCoord": {
            "lat": 46.0298004,
            "lon": 9.0075386
        },
        "group": 3586,
        "estimatedCoord": {
            "lat": 46.02968773443361,
            "lon": 9.007395598899723
        },
        "distance": 16.703278012506477
    },
    {
        "id": 421820550,
        "name": "Trafoier Eiswand - Cima di Trafoi",
        "ele": "3565",
        "realCoord": {
            "lat": 46.4957871,
            "lon": 10.5134063
        },
        "group": 5596,
        "estimatedCoord": {
            "lat": 46.49583333333333,
            "lon": 10.514583333333333
        },
        "distance": 90.27375938300754
    },
    {
        "id": 423105294,
        "name": "Tuckettspitze",
        "ele": "3462",
        "realCoord": {
            "lat": 46.4977606,
            "lon": 10.4894468
        },
        "group": 5560,
        "estimatedCoord": {
            "lat": 46.498125156289085,
            "lon": 10.489166666666666
        },
        "distance": 45.873092751627134
    },
    {
        "id": 425374166,
        "name": "Monte Zebrù",
        "ele": "3724",
        "realCoord": {
            "lat": 46.4900492,
            "lon": 10.5552619
        },
        "group": 5637,
        "estimatedCoord": {
            "lat": 46.49000000000001,
            "lon": 10.5547225
        },
        "distance": 41.667974071022286
    },
    {
        "id": 427508835,
        "name": "Cima Ganone",
        "ele": "1317",
        "realCoord": {
            "lat": 45.7241117,
            "lon": 10.5266832
        },
        "group": 1808,
        "estimatedCoord": {
            "lat": 45.724583333333335,
            "lon": 10.526389166666668
        },
        "distance": 57.21290310126594
    },
    {
        "id": 428616101,
        "name": "Palon de la Mare",
        "ele": "3703",
        "realCoord": {
            "lat": 46.4164037,
            "lon": 10.6174669
        },
        "group": 5729,
        "estimatedCoord": {
            "lat": 46.416666666666664,
            "lon": 10.617916666666666
        },
        "distance": 45.22245472771468
    },
    {
        "id": 429878980,
        "name": "Punta Saline",
        "realCoord": {
            "lat": 46.3908249,
            "lon": 10.6164593
        },
        "group": 5725,
        "estimatedCoord": {
            "lat": 46.38885408852213,
            "lon": 10.615937421855463
        },
        "distance": 222.83953231295442
    },
    {
        "id": 446300674,
        "name": "Monte Traversole",
        "ele": "1441",
        "realCoord": {
            "lat": 45.8300486,
            "lon": 10.7563354
        },
        "group": 1921,
        "estimatedCoord": {
            "lat": 45.83035704084547,
            "lon": 10.756190374178804
        },
        "distance": 36.10214135834508
    },
    {
        "id": 450591939,
        "name": "Cima di Bondolo",
        "ele": "2383",
        "realCoord": {
            "lat": 45.9250156,
            "lon": 10.5072663
        },
        "group": 1800,
        "estimatedCoord": {
            "lat": 45.92483353329334,
            "lon": 10.507166566686664
        },
        "distance": 21.671588247768014
    },
    {
        "id": 450591940,
        "name": "Monte Brealone",
        "ele": "2265",
        "realCoord": {
            "lat": 45.9095746,
            "lon": 10.5067716
        },
        "group": 1801,
        "estimatedCoord": {
            "lat": 45.90916666666667,
            "lon": 10.506666666666666
        },
        "distance": 46.09538950975378
    },
    {
        "id": 450740039,
        "name": "Dosso Toricla",
        "ele": "1838",
        "realCoord": {
            "lat": 46.1957057,
            "lon": 10.3124028
        },
        "group": 5371,
        "estimatedCoord": {
            "lat": 46.19583333333333,
            "lon": 10.3125
        },
        "distance": 16.048374911329983
    },
    {
        "id": 452014401,
        "name": "Pizzo della Casa",
        "ele": "2523",
        "realCoord": {
            "lat": 46.4979729,
            "lon": 9.3397363
        },
        "group": 3988,
        "estimatedCoord": {
            "lat": 46.49866646658664,
            "lon": 9.340166566626651
        },
        "distance": 83.8853085785285
    },
    {
        "id": 452029024,
        "name": "Punta Levis",
        "ele": "2692",
        "realCoord": {
            "lat": 46.4948331,
            "lon": 9.3686984
        },
        "group": 4012,
        "estimatedCoord": {
            "lat": 46.49452370751212,
            "lon": 9.368690374178806
        },
        "distance": 34.41916183319012
    },
    {
        "id": 452042862,
        "name": "Pizzo Zoccone",
        "ele": "3091",
        "realCoord": {
            "lat": 46.489529,
            "lon": 9.2794079
        },
        "group": 3914,
        "estimatedCoord": {
            "lat": 46.48937484371093,
            "lon": 9.278958489622406
        },
        "distance": 38.450948139812226
    },
    {
        "id": 452066538,
        "name": "Cimalmotta",
        "ele": "2834",
        "realCoord": {
            "lat": 46.49789,
            "lon": 9.4341917
        },
        "group": 4070,
        "estimatedCoord": {
            "lat": 46.49791666666667,
            "lon": 9.434166666666666
        },
        "distance": 3.5315590676082276
    },
    {
        "id": 452067524,
        "name": "Pizzo del Crot",
        "ele": "2846",
        "realCoord": {
            "lat": 46.4920253,
            "lon": 9.4286592
        },
        "group": 4068,
        "estimatedCoord": {
            "lat": 46.49222222222222,
            "lon": 9.428611111111111
        },
        "distance": 22.211022809028417
    },
    {
        "id": 452068333,
        "name": "Pizzo della Palù",
        "ele": "3179",
        "realCoord": {
            "lat": 46.4747925,
            "lon": 9.4223314
        },
        "group": 4065,
        "estimatedCoord": {
            "lat": 46.474722500000006,
            "lon": 9.4222225
        },
        "distance": 11.410950985598504
    },
    {
        "id": 452073742,
        "name": "Schiahorn",
        "ele": "2637",
        "realCoord": {
            "lat": 46.4597014,
            "lon": 9.4592015
        },
        "group": 4088,
        "estimatedCoord": {
            "lat": 46.459791822955744,
            "lon": 9.459374843710929
        },
        "distance": 16.660401455658086
    },
    {
        "id": 452085694,
        "name": "Cima Dei Buoi",
        "ele": "2974",
        "realCoord": {
            "lat": 46.6034003,
            "lon": 10.0995155
        },
        "group": 5023,
        "estimatedCoord": {
            "lat": 46.6025,
            "lon": 10.1
        },
        "distance": 106.76594555071541
    },
    {
        "id": 452086504,
        "name": "Pizzo Fier",
        "ele": "3058",
        "realCoord": {
            "lat": 46.5976531,
            "lon": 10.0977656
        },
        "group": 5020,
        "estimatedCoord": {
            "lat": 46.59777777777777,
            "lon": 10.098055555555554
        },
        "distance": 26.14218956103113
    },
    {
        "id": 452086755,
        "name": "Monte Saliente",
        "ele": "3047",
        "realCoord": {
            "lat": 46.584961,
            "lon": 10.1027662
        },
        "group": 5025,
        "estimatedCoord": {
            "lat": 46.585,
            "lon": 10.102083333333331
        },
        "distance": 52.38222707936109
    },
    {
        "id": 452087721,
        "name": "Punta dell'Acqua",
        "ele": "3121",
        "realCoord": {
            "lat": 46.6109323,
            "lon": 10.1390354
        },
        "group": 5084,
        "estimatedCoord": {
            "lat": 46.61083333333333,
            "lon": 10.137916666666666
        },
        "distance": 86.18748156058247
    },
    {
        "id": 452088347,
        "name": "Corna Dei Cavalli",
        "ele": "2990",
        "realCoord": {
            "lat": 46.582852,
            "lon": 10.1188249
        },
        "group": 5056,
        "estimatedCoord": {
            "lat": 46.583333333333336,
            "lon": 10.118333333333334
        },
        "distance": 65.41104613138533
    },
    {
        "id": 452398470,
        "name": "Südliche Zufallspitze - Cima Cevedale",
        "ele": "3757",
        "realCoord": {
            "lat": 46.4481549,
            "lon": 10.6222944
        },
        "group": 5734,
        "estimatedCoord": {
            "lat": 46.447916666666664,
            "lon": 10.622083333333332
        },
        "distance": 31.045734800981315
    },
    {
        "id": 452466866,
        "name": "Monte Breva",
        "ele": "3099",
        "realCoord": {
            "lat": 46.4767917,
            "lon": 10.0445588
        },
        "group": 4931,
        "estimatedCoord": {
            "lat": 46.47666666666667,
            "lon": 10.044583333333334
        },
        "distance": 14.033824770198313
    },
    {
        "id": 452466872,
        "name": "Monte Garone",
        "ele": "3024",
        "realCoord": {
            "lat": 46.4877794,
            "lon": 10.0485509
        },
        "group": 4936,
        "estimatedCoord": {
            "lat": 46.487618996569466,
            "lon": 10.047618996569469
        },
        "distance": 73.56422231610514
    },
    {
        "id": 452466877,
        "name": "Monte Ganda",
        "ele": "2789",
        "realCoord": {
            "lat": 46.4730288,
            "lon": 10.0752424
        },
        "group": 4984,
        "estimatedCoord": {
            "lat": 46.473333333333336,
            "lon": 10.075416666666667
        },
        "distance": 36.40878684153476
    },
    {
        "id": 452466880,
        "name": "Monte del Buon Curato",
        "ele": "2767",
        "realCoord": {
            "lat": 46.473536,
            "lon": 10.1194282
        },
        "group": 5059,
        "estimatedCoord": {
            "lat": 46.47375,
            "lon": 10.119166666666667
        },
        "distance": 31.11203686142873
    },
    {
        "id": 452466883,
        "name": "Corna di Capra",
        "ele": "3134",
        "realCoord": {
            "lat": 46.4545192,
            "lon": 10.1314087
        },
        "group": 5072,
        "estimatedCoord": {
            "lat": 46.454166666666666,
            "lon": 10.13125
        },
        "distance": 41.05474618323409
    },
    {
        "id": 452466886,
        "name": "Pizzo Cassana",
        "ele": "3005",
        "realCoord": {
            "lat": 46.5669408,
            "lon": 10.0852963
        },
        "group": 5006,
        "estimatedCoord": {
            "lat": 46.567023707512135,
            "lon": 10.085357040845471
        },
        "distance": 10.325536924674527
    },
    {
        "id": 452466899,
        "name": "Pizzo del Leverone",
        "ele": "3051",
        "realCoord": {
            "lat": 46.5275144,
            "lon": 10.0511866
        },
        "group": 4946,
        "estimatedCoord": {
            "lat": 46.5275,
            "lon": 10.05125
        },
        "distance": 5.109348388370912
    },
    {
        "id": 452466902,
        "name": "Pizzo Cantone",
        "ele": "2904",
        "realCoord": {
            "lat": 46.5032046,
            "lon": 10.0818292
        },
        "group": 4997,
        "estimatedCoord": {
            "lat": 46.50312515628906,
            "lon": 10.081458489622406
        },
        "distance": 29.725774768386717
    },
    {
        "id": 452466915,
        "name": "Monte Cotschen",
        "ele": "3090",
        "realCoord": {
            "lat": 46.5101233,
            "lon": 10.0428234
        },
        "group": 4926,
        "estimatedCoord": {
            "lat": 46.51,
            "lon": 10.042222500000001
        },
        "distance": 48.000695354935075
    },
    {
        "id": 452466923,
        "name": "Monte delle Rezze",
        "ele": "2858",
        "realCoord": {
            "lat": 46.4970523,
            "lon": 10.0947224
        },
        "group": 5014,
        "estimatedCoord": {
            "lat": 46.497083333333336,
            "lon": 10.094583333333333
        },
        "distance": 11.19380504328292
    },
    {
        "id": 452466930,
        "name": "Monte delle Mine",
        "ele": "2881",
        "realCoord": {
            "lat": 46.4938083,
            "lon": 10.1447476
        },
        "group": 5095,
        "estimatedCoord": {
            "lat": 46.492916666666666,
            "lon": 10.144166666666667
        },
        "distance": 108.69605306730507
    },
    {
        "id": 452466939,
        "name": "Monte Campaccio",
        "ele": "3004",
        "realCoord": {
            "lat": 46.498836,
            "lon": 10.0727048
        },
        "group": 4979,
        "estimatedCoord": {
            "lat": 46.498333333333335,
            "lon": 10.0721668667467
        },
        "distance": 69.44472526498501
    },
    {
        "id": 452486575,
        "name": "Monte Corno",
        "ele": "2986",
        "realCoord": {
            "lat": 46.4786882,
            "lon": 10.2001119
        },
        "group": 5195,
        "estimatedCoord": {
            "lat": 46.47888888888888,
            "lon": 10.19972222222222
        },
        "distance": 37.27161841979168
    },
    {
        "id": 452486579,
        "name": "Monte della Neve",
        "ele": "2785",
        "realCoord": {
            "lat": 46.5089396,
            "lon": 10.1493373
        },
        "group": 5105,
        "estimatedCoord": {
            "lat": 46.50874968742186,
            "lon": 10.149374843710929
        },
        "distance": 21.31856954366953
    },
    {
        "id": 452486599,
        "name": "Monte Crapene`",
        "ele": "2430",
        "realCoord": {
            "lat": 46.5473843,
            "lon": 10.1693244
        },
        "group": 5146,
        "estimatedCoord": {
            "lat": 46.54722222222222,
            "lon": 10.169722222222221
        },
        "distance": 35.37188790514629
    },
    {
        "id": 452486608,
        "name": "Cima del Fopel",
        "ele": "2922",
        "realCoord": {
            "lat": 46.5960081,
            "lon": 10.1494126
        },
        "group": 5103,
        "estimatedCoord": {
            "lat": 46.595972152743045,
            "lon": 10.149305486076372
        },
        "distance": 9.110987865009172
    },
    {
        "id": 452486625,
        "name": "Pizzo Filone",
        "ele": "3133",
        "realCoord": {
            "lat": 46.4575127,
            "lon": 10.1631129
        },
        "group": 5132,
        "estimatedCoord": {
            "lat": 46.45714301029159,
            "lon": 10.163214336763865
        },
        "distance": 41.84867657251464
    },
    {
        "id": 452486632,
        "name": "Monte Forcellina",
        "ele": "3090",
        "realCoord": {
            "lat": 46.4663519,
            "lon": 10.1990755
        },
        "group": 5193,
        "estimatedCoord": {
            "lat": 46.46625,
            "lon": 10.19875
        },
        "distance": 27.3924694988934
    },
    {
        "id": 452486653,
        "name": "Monte Torraccia",
        "ele": "2784",
        "realCoord": {
            "lat": 46.5393588,
            "lon": 10.2093564
        },
        "group": 5218,
        "estimatedCoord": {
            "lat": 46.539499799919966,
            "lon": 10.209666866746698
        },
        "distance": 28.464237573764034
    },
    {
        "id": 452486657,
        "name": "Cima di Pra` Grata",
        "ele": "2789",
        "realCoord": {
            "lat": 46.5751707,
            "lon": 10.2157673
        },
        "group": 5230,
        "estimatedCoord": {
            "lat": 46.575,
            "lon": 10.215416666666666
        },
        "distance": 32.851855842051215
    },
    {
        "id": 452491910,
        "name": "Monte Masucco",
        "ele": "2376",
        "realCoord": {
            "lat": 46.461831,
            "lon": 10.3088661
        },
        "group": 5366,
        "estimatedCoord": {
            "lat": 46.461110833333336,
            "lon": 10.3097225
        },
        "distance": 103.54839758325606
    },
    {
        "id": 452491912,
        "name": "Croce delle Scale",
        "ele": "2500",
        "realCoord": {
            "lat": 46.4994048,
            "lon": 10.3329981
        },
        "group": 5384,
        "estimatedCoord": {
            "lat": 46.49916666666667,
            "lon": 10.332916666666666
        },
        "distance": 27.211494024717624
    },
    {
        "id": 452491914,
        "name": "Monte delle Scale",
        "ele": "2520",
        "realCoord": {
            "lat": 46.5018581,
            "lon": 10.3246561
        },
        "group": 5377,
        "estimatedCoord": {
            "lat": 46.501666666666665,
            "lon": 10.3252775
        },
        "distance": 52.12389378288048
    },
    {
        "id": 452491919,
        "name": "Monte Solena",
        "ele": "2912",
        "realCoord": {
            "lat": 46.5336604,
            "lon": 10.3347987
        },
        "group": 5386,
        "estimatedCoord": {
            "lat": 46.53333333333333,
            "lon": 10.335
        },
        "distance": 39.506078111565735
    },
    {
        "id": 452491921,
        "name": "Piz Schumbraida",
        "ele": "3124",
        "realCoord": {
            "lat": 46.542714,
            "lon": 10.338229
        },
        "group": 5390,
        "estimatedCoord": {
            "lat": 46.54260412757973,
            "lon": 10.338229205753594
        },
        "distance": 12.221101120617014
    },
    {
        "id": 452491922,
        "name": "Monte Cornaccia",
        "ele": "3142",
        "realCoord": {
            "lat": 46.5494119,
            "lon": 10.3081133
        },
        "group": 5363,
        "estimatedCoord": {
            "lat": 46.54933313337333,
            "lon": 10.307999900019997
        },
        "distance": 12.329155998622166
    },
    {
        "id": 452491923,
        "name": "Piz Magliavachas",
        "ele": "3088",
        "realCoord": {
            "lat": 46.5623508,
            "lon": 10.2918713
        },
        "group": 5343,
        "estimatedCoord": {
            "lat": 46.56270817704425,
            "lon": 10.291250312578143
        },
        "distance": 61.93212339483248
    },
    {
        "id": 452496444,
        "name": "Thurwieserspitze - Punta Thurwieser",
        "ele": "3658",
        "realCoord": {
            "lat": 46.4953982,
            "lon": 10.524322
        },
        "group": 5606,
        "estimatedCoord": {
            "lat": 46.49535704084546,
            "lon": 10.52535704084547
        },
        "distance": 79.38733988773227
    },
    {
        "id": 452507186,
        "name": "Monte Scorluzzo",
        "ele": "3094",
        "realCoord": {
            "lat": 46.5218846,
            "lon": 10.4424515
        },
        "group": 5509,
        "estimatedCoord": {
            "lat": 46.522166566686664,
            "lon": 10.442333533293342
        },
        "distance": 32.63677115394834
    },
    {
        "id": 452507191,
        "name": "Monte Cristallo",
        "ele": "3439",
        "realCoord": {
            "lat": 46.4958548,
            "lon": 10.460437
        },
        "group": 5530,
        "estimatedCoord": {
            "lat": 46.49583333333333,
            "lon": 10.460555833333334
        },
        "distance": 9.40730465763752
    },
    {
        "id": 452507193,
        "name": "Madaccio di Dentro",
        "ele": "3406",
        "realCoord": {
            "lat": 46.4984319,
            "lon": 10.4933898
        },
        "group": 5570,
        "estimatedCoord": {
            "lat": 46.499583333333334,
            "lon": 10.494166666666667
        },
        "distance": 141.21270743293866
    },
    {
        "id": 452507194,
        "name": "Cime dei Forni",
        "ele": "3240",
        "realCoord": {
            "lat": 46.4488353,
            "lon": 10.539396
        },
        "group": 5615,
        "estimatedCoord": {
            "lat": 46.448611111111106,
            "lon": 10.53888888888889
        },
        "distance": 46.17604921206418
    },
    {
        "id": 452507196,
        "name": "Cima della Manzina",
        "ele": "3316",
        "realCoord": {
            "lat": 46.4493022,
            "lon": 10.515943
        },
        "group": 5598,
        "estimatedCoord": {
            "lat": 46.449166666666656,
            "lon": 10.516333533413365
        },
        "distance": 33.5116434275071
    },
    {
        "id": 452507204,
        "name": "Monte Radisca",
        "ele": "2967",
        "realCoord": {
            "lat": 46.5270165,
            "lon": 10.3893043
        },
        "group": 5435,
        "estimatedCoord": {
            "lat": 46.52694416666667,
            "lon": 10.389722500000001
        },
        "distance": 32.999651542242155
    },
    {
        "id": 452507211,
        "name": "Monte Forcellino",
        "ele": "2842",
        "realCoord": {
            "lat": 46.4669953,
            "lon": 10.4781647
        },
        "group": 5547,
        "estimatedCoord": {
            "lat": 46.466944444444444,
            "lon": 10.478055555555555
        },
        "distance": 10.095401461226233
    },
    {
        "id": 452507214,
        "name": "Cima della Miniera",
        "ele": "3405",
        "realCoord": {
            "lat": 46.4787703,
            "lon": 10.5521678
        },
        "group": 5634,
        "estimatedCoord": {
            "lat": 46.47833333333333,
            "lon": 10.5525
        },
        "distance": 54.861427757070274
    },
    {
        "id": 452507218,
        "name": "Cima Campana Piccola",
        "ele": "3404",
        "realCoord": {
            "lat": 46.4964768,
            "lon": 10.5040572
        },
        "group": 5580,
        "estimatedCoord": {
            "lat": 46.496874843710934,
            "lon": 10.503958489622407
        },
        "distance": 44.91485673607724
    },
    {
        "id": 452511591,
        "name": "Königspitze - Gran Zebrù",
        "ele": "3851",
        "realCoord": {
            "lat": 46.478719,
            "lon": 10.5684553
        },
        "group": 5662,
        "estimatedCoord": {
            "lat": 46.47875,
            "lon": 10.567916666666667
        },
        "distance": 41.400733407536926
    },
    {
        "id": 456014910,
        "name": "Cima Plem",
        "ele": "3182",
        "realCoord": {
            "lat": 46.1515242,
            "lon": 10.4631842
        },
        "group": 5531,
        "estimatedCoord": {
            "lat": 46.151041744781914,
            "lon": 10.463020872390953
        },
        "distance": 55.119418180552834
    },
    {
        "id": 456033011,
        "name": "Monte Marosso",
        "ele": "2688",
        "realCoord": {
            "lat": 46.0582323,
            "lon": 10.4850529
        },
        "group": 5555,
        "estimatedCoord": {
            "lat": 46.05812515628908,
            "lon": 10.485
        },
        "distance": 12.597636030364095
    },
    {
        "id": 456033013,
        "name": "Monte Campellio",
        "ele": "2675",
        "realCoord": {
            "lat": 46.0513489,
            "lon": 10.4774992
        },
        "group": 5546,
        "estimatedCoord": {
            "lat": 46.0513542057243,
            "lon": 10.477187539057619
        },
        "distance": 24.065901244824396
    },
    {
        "id": 456059547,
        "name": "Pizzo Badile Camuno",
        "ele": "2434",
        "realCoord": {
            "lat": 46.0060139,
            "lon": 10.4016932
        },
        "group": 5453,
        "estimatedCoord": {
            "lat": 46.00625015623047,
            "lon": 10.401458255218097
        },
        "distance": 31.938154408515718
    },
    {
        "id": 457015984,
        "name": "Pizzi dei Piani",
        "ele": "3146",
        "realCoord": {
            "lat": 46.4541638,
            "lon": 9.2707348
        },
        "group": 3904,
        "estimatedCoord": {
            "lat": 46.45479182295574,
            "lon": 9.271666666666668
        },
        "distance": 99.89442037167782
    },
    {
        "id": 457015996,
        "name": "Motto Alto",
        "ele": "2720",
        "realCoord": {
            "lat": 46.3877513,
            "lon": 9.297697
        },
        "group": 3946,
        "estimatedCoord": {
            "lat": 46.3875,
            "lon": 9.29875
        },
        "distance": 85.4888537998563
    },
    {
        "id": 457016014,
        "name": "Pizzo Truzzo",
        "ele": "2722",
        "realCoord": {
            "lat": 46.3778985,
            "lon": 9.3104644
        },
        "group": 3961,
        "estimatedCoord": {
            "lat": 46.37708364591148,
            "lon": 9.311041510377594
        },
        "distance": 100.8770091308056
    },
    {
        "id": 457016018,
        "name": "Monte Balniscio",
        "ele": "2846",
        "realCoord": {
            "lat": 46.426592,
            "lon": 9.2578432
        },
        "group": 3893,
        "estimatedCoord": {
            "lat": 46.42583333333334,
            "lon": 9.258333333333333
        },
        "distance": 92.37522637534785
    },
    {
        "id": 457016030,
        "name": "Pizzo Sevino",
        "ele": "3024",
        "realCoord": {
            "lat": 46.3797089,
            "lon": 9.2804282
        },
        "group": 3918,
        "estimatedCoord": {
            "lat": 46.379999999999995,
            "lon": 9.280416666666666
        },
        "distance": 32.39109698911164
    },
    {
        "id": 457016039,
        "name": "Monte Tignoso",
        "ele": "2375",
        "realCoord": {
            "lat": 46.4163751,
            "lon": 9.3086654
        },
        "group": 3959,
        "estimatedCoord": {
            "lat": 46.41611111111111,
            "lon": 9.30888888888889
        },
        "distance": 33.998809258931345
    },
    {
        "id": 457016042,
        "name": "Pizzo della Sancia",
        "ele": "2718",
        "realCoord": {
            "lat": 46.4015666,
            "lon": 9.2819205
        },
        "group": 3921,
        "estimatedCoord": {
            "lat": 46.40183313337332,
            "lon": 9.282000099980003
        },
        "distance": 30.26865425726741
    },
    {
        "id": 457098450,
        "name": "Pizzo di Padion",
        "ele": "2633",
        "realCoord": {
            "lat": 46.3146105,
            "lon": 9.285359
        },
        "group": 3930,
        "estimatedCoord": {
            "lat": 46.315,
            "lon": 9.28625
        },
        "distance": 81.01010231891108
    },
    {
        "id": 457098451,
        "name": "Pizzo della Forcola",
        "ele": "2671",
        "realCoord": {
            "lat": 46.3165329,
            "lon": 9.293823
        },
        "group": 3941,
        "estimatedCoord": {
            "lat": 46.31666666666668,
            "lon": 9.293889166666668
        },
        "distance": 15.723180948217175
    },
    {
        "id": 457098496,
        "name": "Pizzo San Pio",
        "ele": "2301",
        "realCoord": {
            "lat": 46.2327837,
            "lon": 9.2625279
        },
        "group": 3898,
        "estimatedCoord": {
            "lat": 46.2325,
            "lon": 9.262916666666666
        },
        "distance": 43.480037691691415
    },
    {
        "id": 457098504,
        "name": "Il Pizzaccio",
        "ele": "2589",
        "realCoord": {
            "lat": 46.3271589,
            "lon": 9.2993038
        },
        "group": 3947,
        "estimatedCoord": {
            "lat": 46.32741649164916,
            "lon": 9.299416691669169
        },
        "distance": 29.935210006504075
    },
    {
        "id": 457098521,
        "name": "Pizzo del Torto",
        "ele": "2723",
        "realCoord": {
            "lat": 46.3556907,
            "lon": 9.296195
        },
        "group": 3944,
        "estimatedCoord": {
            "lat": 46.35583333333334,
            "lon": 9.296249999999999
        },
        "distance": 16.417318180696054
    },
    {
        "id": 457098533,
        "name": "Pizzo Camparasca",
        "ele": "2315",
        "realCoord": {
            "lat": 46.2519033,
            "lon": 9.2514093
        },
        "group": 3882,
        "estimatedCoord": {
            "lat": 46.25150019996001,
            "lon": 9.25133323335333
        },
        "distance": 45.21685543640809
    },
    {
        "id": 457098606,
        "name": "Pizzo della Piazza",
        "ele": "2239",
        "realCoord": {
            "lat": 46.279998,
            "lon": 9.2832265
        },
        "group": 3927,
        "estimatedCoord": {
            "lat": 46.28,
            "lon": 9.283610833333334
        },
        "distance": 29.5463865341612
    },
    {
        "id": 457098609,
        "name": "Pizzo Setaggio",
        "ele": "2476",
        "realCoord": {
            "lat": 46.2954071,
            "lon": 9.2808508
        },
        "group": 3922,
        "estimatedCoord": {
            "lat": 46.295833333333334,
            "lon": 9.281666666666666
        },
        "distance": 78.60788040340847
    },
    {
        "id": 457098616,
        "name": "Il Mottone",
        "ele": "2053",
        "realCoord": {
            "lat": 46.2818995,
            "lon": 9.3072844
        },
        "group": 3956,
        "estimatedCoord": {
            "lat": 46.281666666666666,
            "lon": 9.307083333333335
        },
        "distance": 30.159726966205323
    },
    {
        "id": 457098621,
        "name": "Pizzo Roggione",
        "ele": "2575",
        "realCoord": {
            "lat": 46.2665349,
            "lon": 9.2505039
        },
        "group": 3880,
        "estimatedCoord": {
            "lat": 46.266458489622416,
            "lon": 9.250416354088523
        },
        "distance": 10.842101267496039
    },
    {
        "id": 457098625,
        "name": "Pizzo Pombi",
        "ele": "2967",
        "realCoord": {
            "lat": 46.367899,
            "lon": 9.2758448
        },
        "group": 3909,
        "estimatedCoord": {
            "lat": 46.36750000000001,
            "lon": 9.276110833333334
        },
        "distance": 48.852451605520756
    },
    {
        "id": 457109016,
        "name": "Pizzo Groppera",
        "ele": "2948",
        "realCoord": {
            "lat": 46.4140682,
            "lon": 9.3998247
        },
        "group": 4040,
        "estimatedCoord": {
            "lat": 46.41416666666667,
            "lon": 9.4
        },
        "distance": 17.339938283258974
    },
    {
        "id": 457109021,
        "name": "Monte Mater",
        "ele": "3022",
        "realCoord": {
            "lat": 46.4472653,
            "lon": 9.399225
        },
        "group": 4039,
        "estimatedCoord": {
            "lat": 46.44714280611516,
            "lon": 9.399047721103015
        },
        "distance": 19.24153133295198
    },
    {
        "id": 457109032,
        "name": "Monte Caurga",
        "ele": "2865",
        "realCoord": {
            "lat": 46.4361677,
            "lon": 9.4033808
        },
        "group": 4048,
        "estimatedCoord": {
            "lat": 46.43666666666667,
            "lon": 9.40375
        },
        "distance": 62.29925268857109
    },
    {
        "id": 457109033,
        "name": "Cresta di Crap Negher",
        "ele": "2847",
        "realCoord": {
            "lat": 46.4364088,
            "lon": 9.4051789
        },
        "group": 4048,
        "estimatedCoord": {
            "lat": 46.43666666666667,
            "lon": 9.40375
        },
        "distance": 113.22534580364983
    },
    {
        "id": 457109037,
        "name": "La Colmenetta",
        "ele": "2345",
        "realCoord": {
            "lat": 46.4201464,
            "lon": 9.3817973
        },
        "group": 4027,
        "estimatedCoord": {
            "lat": 46.419583333333335,
            "lon": 9.382083333333334
        },
        "distance": 66.35910230496667
    },
    {
        "id": 457124396,
        "name": "Pizzo Alto",
        "ele": "2482",
        "realCoord": {
            "lat": 46.3562802,
            "lon": 9.4126473
        },
        "group": 4055,
        "estimatedCoord": {
            "lat": 46.35625,
            "lon": 9.4122225
        },
        "distance": 32.78348177889637
    },
    {
        "id": 457124400,
        "name": "Monte Mater",
        "ele": "2415",
        "realCoord": {
            "lat": 46.3249712,
            "lon": 9.3217278
        },
        "group": 3973,
        "estimatedCoord": {
            "lat": 46.32500000000001,
            "lon": 9.321666666666667
        },
        "distance": 5.684363576879829
    },
    {
        "id": 457124419,
        "name": "Pizzo Camoscie",
        "ele": "2467",
        "realCoord": {
            "lat": 46.3641156,
            "lon": 9.3265027
        },
        "group": 3977,
        "estimatedCoord": {
            "lat": 46.36416666666667,
            "lon": 9.326389166666667
        },
        "distance": 10.402183313311074
    },
    {
        "id": 457130719,
        "name": "Monte Borlasca",
        "ele": "1778",
        "realCoord": {
            "lat": 46.2591345,
            "lon": 9.3456196
        },
        "group": 3993,
        "estimatedCoord": {
            "lat": 46.25916666666667,
            "lon": 9.346110833333334
        },
        "distance": 37.94688287683931
    },
    {
        "id": 457130723,
        "name": "Dosso Mottone",
        "ele": "1904",
        "realCoord": {
            "lat": 46.2956937,
            "lon": 9.3234246
        },
        "group": 3975,
        "estimatedCoord": {
            "lat": 46.295,
            "lon": 9.323333333333334
        },
        "distance": 77.47828509217008
    },
    {
        "id": 457130724,
        "name": "Pizzo Anna Maria",
        "ele": "2361",
        "realCoord": {
            "lat": 46.2349706,
            "lon": 9.3334788
        },
        "group": 3981,
        "estimatedCoord": {
            "lat": 46.235,
            "lon": 9.331666666666667
        },
        "distance": 139.4601423450948
    },
    {
        "id": 457160732,
        "name": "Pizzo Peloso",
        "ele": "2780",
        "realCoord": {
            "lat": 46.3969738,
            "lon": 9.4209245
        },
        "group": 4063,
        "estimatedCoord": {
            "lat": 46.397166566686664,
            "lon": 9.420999800039992
        },
        "distance": 22.205843690296426
    },
    {
        "id": 457160897,
        "name": "Cima della Sovrana",
        "ele": "3014",
        "realCoord": {
            "lat": 46.3887272,
            "lon": 9.4688971
        },
        "group": 4102,
        "estimatedCoord": {
            "lat": 46.389583333333334,
            "lon": 9.46875
        },
        "distance": 95.89399087533164
    },
    {
        "id": 457161189,
        "name": "Cima di Pian della Vacca",
        "ele": "2859",
        "realCoord": {
            "lat": 46.4205007,
            "lon": 9.4544017
        },
        "group": 4079,
        "estimatedCoord": {
            "lat": 46.42041697924482,
            "lon": 9.45437484371093
        },
        "distance": 9.537217859079085
    },
    {
        "id": 457354505,
        "name": "Corna di Droso",
        "ele": "2410",
        "realCoord": {
            "lat": 46.2993115,
            "lon": 9.4993511
        },
        "group": 4134,
        "estimatedCoord": {
            "lat": 46.3,
            "lon": 9.498333333333335
        },
        "distance": 109.46215757548764
    },
    {
        "id": 457354508,
        "name": "Pizzo dello Scudo",
        "ele": "2538",
        "realCoord": {
            "lat": 46.3540994,
            "lon": 9.4736042
        },
        "group": 4105,
        "estimatedCoord": {
            "lat": 46.35388888888888,
            "lon": 9.47361111111111
        },
        "distance": 23.421126235772935
    },
    {
        "id": 457354515,
        "name": "Monte Gruf",
        "ele": "2936",
        "realCoord": {
            "lat": 46.2863594,
            "lon": 9.5057952
        },
        "group": 4149,
        "estimatedCoord": {
            "lat": 46.286190527218174,
            "lon": 9.505952278896984
        },
        "distance": 22.3295580675509
    },
    {
        "id": 457354516,
        "name": "Monte Conco",
        "ele": "2905",
        "realCoord": {
            "lat": 46.2908141,
            "lon": 9.5108877
        },
        "group": 4157,
        "estimatedCoord": {
            "lat": 46.29062515628907,
            "lon": 9.511145911477868
        },
        "distance": 28.905817620094
    },
    {
        "id": 457354557,
        "name": "Sas Becchè",
        "ele": "2726",
        "realCoord": {
            "lat": 46.2828062,
            "lon": 9.4878542
        },
        "group": 4119,
        "estimatedCoord": {
            "lat": 46.2825,
            "lon": 9.487916666666669
        },
        "distance": 34.39541507979794
    },
    {
        "id": 457354576,
        "name": "Motta Alta",
        "ele": "1683",
        "realCoord": {
            "lat": 46.2461553,
            "lon": 9.4649145
        },
        "group": 4096,
        "estimatedCoord": {
            "lat": 46.246249999999996,
            "lon": 9.464166666666667
        },
        "distance": 58.481436443940616
    },
    {
        "id": 457354586,
        "name": "Cima di Lavrina",
        "ele": "2313",
        "realCoord": {
            "lat": 46.2492361,
            "lon": 9.5045419
        },
        "group": 4148,
        "estimatedCoord": {
            "lat": 46.24916666666667,
            "lon": 9.504722500000002
        },
        "distance": 15.893909953252367
    },
    {
        "id": 457354629,
        "name": "Motta d'Avedee",
        "ele": "1448",
        "realCoord": {
            "lat": 46.2342365,
            "lon": 9.454986
        },
        "group": 4081,
        "estimatedCoord": {
            "lat": 46.234374843710924,
            "lon": 9.455416979244811
        },
        "distance": 36.55560765495064
    },
    {
        "id": 457354648,
        "name": "Pizzo Grillo",
        "ele": "2169",
        "realCoord": {
            "lat": 46.3020831,
            "lon": 9.4632275
        },
        "group": 4093,
        "estimatedCoord": {
            "lat": 46.30166666666667,
            "lon": 9.4625
        },
        "distance": 72.60021765488732
    },
    {
        "id": 457354699,
        "name": "Corna Garzone",
        "ele": "2437",
        "realCoord": {
            "lat": 46.2943959,
            "lon": 9.4613303
        },
        "group": 4091,
        "estimatedCoord": {
            "lat": 46.29375,
            "lon": 9.46125
        },
        "distance": 72.1079313573328
    },
    {
        "id": 457354763,
        "name": "Pizzo di Prata",
        "ele": "2727",
        "realCoord": {
            "lat": 46.277797,
            "lon": 9.4554457
        },
        "group": 4084,
        "estimatedCoord": {
            "lat": 46.2775,
            "lon": 9.45625
        },
        "distance": 70.10460217950559
    },
    {
        "id": 457354777,
        "name": "Monte Galleggione",
        "ele": "3106",
        "realCoord": {
            "lat": 46.3668379,
            "lon": 9.4877365
        },
        "group": 4117,
        "estimatedCoord": {
            "lat": 46.36694416666667,
            "lon": 9.488194166666668
        },
        "distance": 37.062555499807736
    },
    {
        "id": 457365444,
        "name": "Pizzo della Croce",
        "ele": "1489",
        "realCoord": {
            "lat": 45.9360539,
            "lon": 9.0558509
        },
        "group": 1307,
        "estimatedCoord": {
            "lat": 45.936166466586634,
            "lon": 9.055500200080031
        },
        "distance": 29.87869519992321
    },
    {
        "id": 457365475,
        "name": "Monte Bisbino",
        "ele": "1325",
        "realCoord": {
            "lat": 45.873663,
            "lon": 9.0665861
        },
        "group": 1308,
        "estimatedCoord": {
            "lat": 45.873452278896984,
            "lon": 9.066190527218174
        },
        "distance": 38.57237217480542
    },
    {
        "id": 457365477,
        "name": "Sasso Gordona",
        "ele": "1410",
        "realCoord": {
            "lat": 45.9119945,
            "lon": 9.0809809
        },
        "group": 1311,
        "estimatedCoord": {
            "lat": 45.911852006224294,
            "lon": 9.080740802489718
        },
        "distance": 24.422618736244786
    },
    {
        "id": 457365493,
        "name": "Monte Caslè",
        "ele": "1030",
        "realCoord": {
            "lat": 45.9935154,
            "lon": 9.0357763
        },
        "group": 1305,
        "estimatedCoord": {
            "lat": 45.99375,
            "lon": 9.036666666666667
        },
        "distance": 73.58576630262084
    },
    {
        "id": 457365507,
        "name": "Monte Cecci",
        "ele": "1176",
        "realCoord": {
            "lat": 46.00151,
            "lon": 9.0522191
        },
        "group": 3648,
        "estimatedCoord": {
            "lat": 46.001250000000006,
            "lon": 9.052083333333334
        },
        "distance": 30.763486752238094
    },
    {
        "id": 457365510,
        "name": "Monte Tre Croci",
        "ele": "477",
        "realCoord": {
            "lat": 45.7893465,
            "lon": 9.10106
        },
        "group": 1315,
        "estimatedCoord": {
            "lat": 45.7885415103776,
            "lon": 9.100625156289073
        },
        "distance": 95.68025256322967
    },
    {
        "id": 457398063,
        "name": "Monte Astele",
        "ele": "1183",
        "realCoord": {
            "lat": 45.8364161,
            "lon": 9.132776
        },
        "group": 1325,
        "estimatedCoord": {
            "lat": 45.8360415103776,
            "lon": 9.133541510377595
        },
        "distance": 72.49326544200014
    },
    {
        "id": 457398064,
        "name": "Monte Boletto",
        "ele": "1238",
        "realCoord": {
            "lat": 45.8337011,
            "lon": 9.1423689
        },
        "group": 1326,
        "estimatedCoord": {
            "lat": 45.833333333333336,
            "lon": 9.142916666666666
        },
        "distance": 58.95308219829288
    },
    {
        "id": 457398067,
        "name": "Monte Comana",
        "ele": "1210",
        "realCoord": {
            "lat": 45.9189394,
            "lon": 9.1159962
        },
        "group": 1321,
        "estimatedCoord": {
            "lat": 45.91888916666667,
            "lon": 9.115833333333333
        },
        "distance": 13.785688118927292
    },
    {
        "id": 457398070,
        "name": "Monte Crocione",
        "ele": "1641",
        "realCoord": {
            "lat": 46.0060976,
            "lon": 9.1959376
        },
        "group": 3812,
        "estimatedCoord": {
            "lat": 46.005833333333335,
            "lon": 9.195416666666667
        },
        "distance": 49.837797243511005
    },
    {
        "id": 457398072,
        "name": "Monte di Tremezzo",
        "ele": "1699",
        "realCoord": {
            "lat": 46.0019241,
            "lon": 9.1852861
        },
        "group": 3805,
        "estimatedCoord": {
            "lat": 46.001666666666665,
            "lon": 9.185277500000002
        },
        "distance": 28.641975401789423
    },
    {
        "id": 457398074,
        "name": "Monte Colmenacco",
        "ele": "1261",
        "realCoord": {
            "lat": 45.9268612,
            "lon": 9.1749793
        },
        "group": 1333,
        "estimatedCoord": {
            "lat": 45.926458489622405,
            "lon": 9.175416979244812
        },
        "distance": 56.15284182994946
    },
    {
        "id": 457398076,
        "name": "Monte Colmegnone",
        "ele": "1378",
        "realCoord": {
            "lat": 45.8924585,
            "lon": 9.1182818
        },
        "group": 1323,
        "estimatedCoord": {
            "lat": 45.8922225,
            "lon": 9.118333333333334
        },
        "distance": 26.55167918306351
    },
    {
        "id": 457398077,
        "name": "Monte Gringo",
        "ele": "1079",
        "realCoord": {
            "lat": 45.9285046,
            "lon": 9.1180188
        },
        "group": 1322,
        "estimatedCoord": {
            "lat": 45.92930555555556,
            "lon": 9.117500000000001
        },
        "distance": 97.71423093859897
    },
    {
        "id": 457398082,
        "name": "Monte Puscio",
        "ele": "1141",
        "realCoord": {
            "lat": 45.8401991,
            "lon": 9.2050255
        },
        "group": 1337,
        "estimatedCoord": {
            "lat": 45.83944416666667,
            "lon": 9.205000000000002
        },
        "distance": 83.99435502145516
    },
    {
        "id": 457398083,
        "name": "Monte di Faello",
        "ele": "1335",
        "realCoord": {
            "lat": 45.8692094,
            "lon": 9.1943894
        },
        "group": 1336,
        "estimatedCoord": {
            "lat": 45.869166666666665,
            "lon": 9.194166666666666
        },
        "distance": 17.89339456677245
    },
    {
        "id": 457398085,
        "name": "Monte di Careno",
        "ele": "1226",
        "realCoord": {
            "lat": 45.8864917,
            "lon": 9.1738631
        },
        "group": 1332,
        "estimatedCoord": {
            "lat": 45.88666666666667,
            "lon": 9.174166666666666
        },
        "distance": 30.515104855173636
    },
    {
        "id": 457398089,
        "name": "Pizzo dell'Asino",
        "ele": "1270",
        "realCoord": {
            "lat": 45.8534175,
            "lon": 9.1914952
        },
        "group": 1335,
        "estimatedCoord": {
            "lat": 45.85361111111111,
            "lon": 9.192222222222222
        },
        "distance": 60.299835498276806
    },
    {
        "id": 457398096,
        "name": "Cima della Duaria",
        "ele": "1446",
        "realCoord": {
            "lat": 45.984502,
            "lon": 9.1467062
        },
        "group": 1327,
        "estimatedCoord": {
            "lat": 45.98458333333333,
            "lon": 9.146666666666668
        },
        "distance": 9.548744492698255
    },
    {
        "id": 457470732,
        "name": "Monte Cornizzolo",
        "ele": "1240",
        "realCoord": {
            "lat": 45.8370925,
            "lon": 9.3019923
        },
        "group": 1351,
        "estimatedCoord": {
            "lat": 45.8375,
            "lon": 9.301999799919967
        },
        "distance": 45.32988309030354
    },
    {
        "id": 457470742,
        "name": "Monte Cornet / Gerbal",
        "ele": "1316",
        "realCoord": {
            "lat": 45.9040942,
            "lon": 9.2492358
        },
        "group": 1343,
        "estimatedCoord": {
            "lat": 45.90416666666667,
            "lon": 9.249166666666667
        },
        "distance": 9.674898338728601
    },
    {
        "id": 457470757,
        "name": "Monte Barzaghino",
        "ele": "1063",
        "realCoord": {
            "lat": 45.8470346,
            "lon": 9.2359503
        },
        "group": 1341,
        "estimatedCoord": {
            "lat": 45.84683313337332,
            "lon": 9.236166766646672
        },
        "distance": 27.990422333711514
    },
    {
        "id": 457470761,
        "name": "Monte Nuvolone",
        "ele": "1092",
        "realCoord": {
            "lat": 45.9499654,
            "lon": 9.2321759
        },
        "group": 1340,
        "estimatedCoord": {
            "lat": 45.95027777777778,
            "lon": 9.233055555555556
        },
        "distance": 76.38886821238631
    },
    {
        "id": 457470764,
        "name": "Monte Garnasca",
        "ele": "694",
        "realCoord": {
            "lat": 45.9609242,
            "lon": 9.2567256
        },
        "group": 1345,
        "estimatedCoord": {
            "lat": 45.960277777777776,
            "lon": 9.256388888888887
        },
        "distance": 76.46987828851061
    },
    {
        "id": 457470795,
        "name": "Castel de Leves",
        "ele": "966",
        "realCoord": {
            "lat": 45.9116457,
            "lon": 9.2811883
        },
        "group": 1349,
        "estimatedCoord": {
            "lat": 45.91154772110302,
            "lon": 9.281190527218174
        },
        "distance": 10.89953933815776
    },
    {
        "id": 457470801,
        "name": "Monte Forcella",
        "ele": "1322",
        "realCoord": {
            "lat": 45.9233175,
            "lon": 9.2377916
        },
        "group": 1342,
        "estimatedCoord": {
            "lat": 45.92291697924481,
            "lon": 9.237708177044262
        },
        "distance": 45.01503971518187
    },
    {
        "id": 457470814,
        "name": "Ceppo del Mucchio",
        "ele": "1081",
        "realCoord": {
            "lat": 45.9398398,
            "lon": 9.2240817
        },
        "group": 1339,
        "estimatedCoord": {
            "lat": 45.93958333333333,
            "lon": 9.224166666666667
        },
        "distance": 29.27404280342604
    },
    {
        "id": 457488889,
        "name": "Pizzo del Cich",
        "ele": "1454",
        "realCoord": {
            "lat": 45.9919948,
            "lon": 9.3633694
        },
        "group": 1365,
        "estimatedCoord": {
            "lat": 45.9915,
            "lon": 9.362833333333336
        },
        "distance": 68.88509923252549
    },
    {
        "id": 457488904,
        "name": "Pizzo di Zirlaca",
        "ele": "1408",
        "realCoord": {
            "lat": 45.9982822,
            "lon": 9.3545567
        },
        "group": 1362,
        "estimatedCoord": {
            "lat": 45.99791666666667,
            "lon": 9.354166666666666
        },
        "distance": 50.60995315733628
    },
    {
        "id": 457488924,
        "name": "Monte Fopp",
        "ele": "1090",
        "realCoord": {
            "lat": 45.9885052,
            "lon": 9.3108708
        },
        "group": 1352,
        "estimatedCoord": {
            "lat": 45.988749999999996,
            "lon": 9.310833333333333
        },
        "distance": 27.382584405725645
    },
    {
        "id": 457488941,
        "name": "Monte Pilastro",
        "ele": "1827",
        "realCoord": {
            "lat": 45.9723109,
            "lon": 9.3559274
        },
        "group": 1363,
        "estimatedCoord": {
            "lat": 45.97138888888889,
            "lon": 9.356388888888889
        },
        "distance": 108.58326463873588
    },
    {
        "id": 457488971,
        "name": "Monte Parolo",
        "ele": "1203",
        "realCoord": {
            "lat": 45.978038,
            "lon": 9.3221655
        },
        "group": 1355,
        "estimatedCoord": {
            "lat": 45.97833333333333,
            "lon": 9.3225
        },
        "distance": 41.804815148325346
    },
    {
        "id": 457489041,
        "name": "Cima di Monte Cucco",
        "ele": "1432",
        "realCoord": {
            "lat": 45.963378,
            "lon": 9.3295623
        },
        "group": 1357,
        "estimatedCoord": {
            "lat": 45.963472152743044,
            "lon": 9.329305486076374
        },
        "distance": 22.44877117854855
    },
    {
        "id": 457489054,
        "name": "Cima del Palone",
        "ele": "2087",
        "realCoord": {
            "lat": 45.9670491,
            "lon": 9.3910291
        },
        "group": 1374,
        "estimatedCoord": {
            "lat": 45.96714295915453,
            "lon": 9.391190374178807
        },
        "distance": 16.262125864848276
    },
    {
        "id": 457506043,
        "name": "Monte Palagia",
        "ele": "1549",
        "realCoord": {
            "lat": 45.9583293,
            "lon": 9.3372599
        },
        "group": 1359,
        "estimatedCoord": {
            "lat": 45.95800020008004,
            "lon": 9.337833133253303
        },
        "distance": 57.486651569055695
    },
    {
        "id": 457506044,
        "name": "Cima di Eghen",
        "ele": "1557",
        "realCoord": {
            "lat": 45.9620873,
            "lon": 9.3449583
        },
        "group": 1361,
        "estimatedCoord": {
            "lat": 45.961666666666666,
            "lon": 9.345
        },
        "distance": 46.897940418059115
    },
    {
        "id": 457506085,
        "name": "Zucco Sileggio",
        "ele": "1373",
        "realCoord": {
            "lat": 45.9455107,
            "lon": 9.3378533
        },
        "group": 1358,
        "estimatedCoord": {
            "lat": 45.945,
            "lon": 9.337916666666665
        },
        "distance": 57.01610492546248
    },
    {
        "id": 457506175,
        "name": "Sasso Cavallo",
        "ele": "1923",
        "realCoord": {
            "lat": 45.9469986,
            "lon": 9.3706568
        },
        "group": 1368,
        "estimatedCoord": {
            "lat": 45.946666666666665,
            "lon": 9.370416666666667
        },
        "distance": 41.32888143538259
    },
    {
        "id": 457506178,
        "name": "Il Zuccone",
        "ele": "1884",
        "realCoord": {
            "lat": 45.947367,
            "lon": 9.3717985
        },
        "group": 1368,
        "estimatedCoord": {
            "lat": 45.946666666666665,
            "lon": 9.370416666666667
        },
        "distance": 132.24864770384016
    },
    {
        "id": 457506187,
        "name": "Zucco Pertusio",
        "ele": "1671",
        "realCoord": {
            "lat": 45.9210573,
            "lon": 9.3638308
        },
        "group": 1367,
        "estimatedCoord": {
            "lat": 45.920833333333334,
            "lon": 9.364166666666666
        },
        "distance": 35.99989111089727
    },
    {
        "id": 457506201,
        "name": "Monte Campione",
        "ele": "2149",
        "realCoord": {
            "lat": 45.9225842,
            "lon": 9.3920552
        },
        "group": 1375,
        "estimatedCoord": {
            "lat": 45.92187484371093,
            "lon": 9.391249687421857
        },
        "distance": 100.5489112678279
    },
    {
        "id": 457506203,
        "name": "Grigna Meridionale",
        "ele": "2181",
        "realCoord": {
            "lat": 45.9219664,
            "lon": 9.3907645
        },
        "group": 1375,
        "estimatedCoord": {
            "lat": 45.92187484371093,
            "lon": 9.391249687421857
        },
        "distance": 38.89845777798283
    },
    {
        "id": 457647593,
        "name": "Corno del Nibbio Meridionale",
        "ele": "1372",
        "realCoord": {
            "lat": 45.9032444,
            "lon": 9.4031344
        },
        "group": 1376,
        "estimatedCoord": {
            "lat": 45.9035415103776,
            "lon": 9.403333333333332
        },
        "distance": 36.45861088284362
    },
    {
        "id": 457647708,
        "name": "Monte Prasanto",
        "ele": "1245",
        "realCoord": {
            "lat": 45.8489433,
            "lon": 9.318477
        },
        "group": 1353,
        "estimatedCoord": {
            "lat": 45.848055555555554,
            "lon": 9.317777777777778
        },
        "distance": 112.62847356517561
    },
    {
        "id": 457647794,
        "name": "Corno di Canzo Occidentale",
        "ele": "1373",
        "realCoord": {
            "lat": 45.8625381,
            "lon": 9.3231977
        },
        "group": 1356,
        "estimatedCoord": {
            "lat": 45.8625,
            "lon": 9.323333333333334
        },
        "distance": 11.328482320315135
    },
    {
        "id": 457647840,
        "name": "Monte Barro",
        "ele": "922",
        "realCoord": {
            "lat": 45.8307881,
            "lon": 9.3802137
        },
        "group": 1370,
        "estimatedCoord": {
            "lat": 45.83083333333333,
            "lon": 9.38
        },
        "distance": 17.30966130011866
    },
    {
        "id": 457647852,
        "name": "Monte Regina",
        "ele": "820",
        "realCoord": {
            "lat": 45.7861358,
            "lon": 9.3873279
        },
        "group": 1372,
        "estimatedCoord": {
            "lat": 45.78645848962241,
            "lon": 9.38770817704426
        },
        "distance": 46.45754655232437
    },
    {
        "id": 457648459,
        "name": "Monte Moregallo",
        "ele": "1276",
        "realCoord": {
            "lat": 45.866588,
            "lon": 9.339581
        },
        "group": 1360,
        "estimatedCoord": {
            "lat": 45.86687484371093,
            "lon": 9.34020817704426
        },
        "distance": 58.11749724824973
    },
    {
        "id": 457711302,
        "name": "Zucco di Desio",
        "ele": "1651",
        "realCoord": {
            "lat": 45.9027242,
            "lon": 9.4483639
        },
        "group": 1383,
        "estimatedCoord": {
            "lat": 45.903333333333336,
            "lon": 9.448333333333334
        },
        "distance": 67.7950947990064
    },
    {
        "id": 457711314,
        "name": "Monte Chiavello",
        "ele": "1787",
        "realCoord": {
            "lat": 45.9714979,
            "lon": 9.4976871
        },
        "group": 1406,
        "estimatedCoord": {
            "lat": 45.97138916666667,
            "lon": 9.497916666666669
        },
        "distance": 21.476288673766895
    },
    {
        "id": 457711351,
        "name": "Cima d'Agrella",
        "ele": "1801",
        "realCoord": {
            "lat": 46.0023155,
            "lon": 9.4498192
        },
        "group": 4078,
        "estimatedCoord": {
            "lat": 46.00149970005999,
            "lon": 9.45
        },
        "distance": 91.81026366381805
    },
    {
        "id": 457711361,
        "name": "Il Pizzo",
        "ele": "1400",
        "realCoord": {
            "lat": 45.7902669,
            "lon": 9.5061962
        },
        "group": 1412,
        "estimatedCoord": {
            "lat": 45.790416666666665,
            "lon": 9.50625
        },
        "distance": 17.173163461787805
    },
    {
        "id": 457711401,
        "name": "Zucco Orscellera",
        "ele": "1858",
        "realCoord": {
            "lat": 45.9545822,
            "lon": 9.4917646
        },
        "group": 1401,
        "estimatedCoord": {
            "lat": 45.954583020755194,
            "lon": 9.49229182295574
        },
        "distance": 40.77032434411316
    },
    {
        "id": 457711410,
        "name": "Zucco Angelone",
        "ele": "1067",
        "realCoord": {
            "lat": 45.9602701,
            "lon": 9.4601859
        },
        "group": 1385,
        "estimatedCoord": {
            "lat": 45.96013881940971,
            "lon": 9.460833333333333
        },
        "distance": 52.14723561195191
    },
    {
        "id": 457711439,
        "name": "Cima di Ferrera",
        "ele": "1387",
        "realCoord": {
            "lat": 45.9097318,
            "lon": 9.479173
        },
        "group": 1396,
        "estimatedCoord": {
            "lat": 45.909166666666664,
            "lon": 9.479583333333334
        },
        "distance": 70.42616683314573
    },
    {
        "id": 457711444,
        "name": "Monte Tesoro",
        "ele": "1431",
        "realCoord": {
            "lat": 45.798448,
            "lon": 9.4940996
        },
        "group": 1402,
        "estimatedCoord": {
            "lat": 45.79875,
            "lon": 9.494166666666667
        },
        "distance": 33.99164120506445
    },
    {
        "id": 457711449,
        "name": "Cima di Musciada",
        "ele": "1456",
        "realCoord": {
            "lat": 45.9001318,
            "lon": 9.469275
        },
        "group": 1387,
        "estimatedCoord": {
            "lat": 45.9,
            "lon": 9.469722083333334
        },
        "distance": 37.58408454350374
    },
    {
        "id": 457711462,
        "name": "Monte Spedone",
        "ele": "1110",
        "realCoord": {
            "lat": 45.8124442,
            "lon": 9.4611419
        },
        "group": 1386,
        "estimatedCoord": {
            "lat": 45.8125,
            "lon": 9.461666666666666
        },
        "distance": 41.15492033864424
    },
    {
        "id": 457711479,
        "name": "Corna Camozzera",
        "ele": "1452",
        "realCoord": {
            "lat": 45.8308841,
            "lon": 9.4726295
        },
        "group": 1390,
        "estimatedCoord": {
            "lat": 45.83095227889698,
            "lon": 9.47285719388484
        },
        "distance": 19.207320649793687
    },
    {
        "id": 457711484,
        "name": "Monte Foppabona",
        "ele": "2084",
        "realCoord": {
            "lat": 45.9945258,
            "lon": 9.4944042
        },
        "group": 1403,
        "estimatedCoord": {
            "lat": 45.99416666666667,
            "lon": 9.495000000000001
        },
        "distance": 60.95418278778269
    },
    {
        "id": 457711513,
        "name": "Zucco di Cam",
        "ele": "2193",
        "realCoord": {
            "lat": 46.0015896,
            "lon": 9.4852866
        },
        "group": 4115,
        "estimatedCoord": {
            "lat": 46.00083333333333,
            "lon": 9.485833333333334
        },
        "distance": 94.13064697849032
    },
    {
        "id": 457711578,
        "name": "Zucco della Croce",
        "ele": "1188",
        "realCoord": {
            "lat": 45.9191081,
            "lon": 9.4944126
        },
        "group": 1404,
        "estimatedCoord": {
            "lat": 45.91916666666667,
            "lon": 9.4947225
        },
        "distance": 24.849024689842445
    },
    {
        "id": 457711582,
        "name": "Zucco della Mersa",
        "ele": "1460",
        "realCoord": {
            "lat": 45.9079184,
            "lon": 9.5025209
        },
        "group": 1411,
        "estimatedCoord": {
            "lat": 45.90800020008003,
            "lon": 9.503000200080033
        },
        "distance": 38.19504609066453
    },
    {
        "id": 458035695,
        "name": "Sasso Grande",
        "ele": "1490",
        "realCoord": {
            "lat": 46.0528415,
            "lon": 9.0229577
        },
        "group": 3607,
        "estimatedCoord": {
            "lat": 46.05250000000001,
            "lon": 9.023055833333334
        },
        "distance": 38.73297419605777
    },
    {
        "id": 458035750,
        "name": "Monte Ogè",
        "ele": "1450",
        "realCoord": {
            "lat": 46.0535853,
            "lon": 9.0300757
        },
        "group": 3623,
        "estimatedCoord": {
            "lat": 46.053666466586634,
            "lon": 9.030333133253304
        },
        "distance": 21.82643943723055
    },
    {
        "id": 458036022,
        "name": "Regagno",
        "realCoord": {
            "lat": 46.064235,
            "lon": 9.0883504
        },
        "group": 3697,
        "estimatedCoord": {
            "lat": 46.06333333333333,
            "lon": 9.0875
        },
        "distance": 119.85854492944185
    },
    {
        "id": 458036068,
        "name": "Monte Stabiello",
        "ele": "2115",
        "realCoord": {
            "lat": 46.1265702,
            "lon": 9.0999219
        },
        "group": 3712,
        "estimatedCoord": {
            "lat": 46.12611111111111,
            "lon": 9.100277777777777
        },
        "distance": 57.96750362782874
    },
    {
        "id": 458036112,
        "name": "Cima del Vallone",
        "ele": "2135",
        "realCoord": {
            "lat": 46.1228315,
            "lon": 9.0853337
        },
        "group": 3695,
        "estimatedCoord": {
            "lat": 46.12270817704427,
            "lon": 9.085416354088522
        },
        "distance": 15.125032839367652
    },
    {
        "id": 458103713,
        "name": "Monte del Mugetto",
        "ele": "1355",
        "realCoord": {
            "lat": 46.0601269,
            "lon": 9.1051845
        },
        "group": 3719,
        "estimatedCoord": {
            "lat": 46.0603331332533,
            "lon": 9.105
        },
        "distance": 26.99988801625537
    },
    {
        "id": 458103714,
        "name": "Cima di Cugn",
        "ele": "2237",
        "realCoord": {
            "lat": 46.1707325,
            "lon": 9.1612149
        },
        "group": 3782,
        "estimatedCoord": {
            "lat": 46.170833333333334,
            "lon": 9.161249999999999
        },
        "distance": 11.536951229634205
    },
    {
        "id": 458103715,
        "name": "Monte Torresella",
        "ele": "2246",
        "realCoord": {
            "lat": 46.1784893,
            "lon": 9.1941713
        },
        "group": 3808,
        "estimatedCoord": {
            "lat": 46.17833333333334,
            "lon": 9.194166666666668
        },
        "distance": 17.351816048527986
    },
    {
        "id": 458103736,
        "name": "Monte Ganda Rossa",
        "ele": "2213",
        "realCoord": {
            "lat": 46.1869653,
            "lon": 9.1980387
        },
        "group": 3815,
        "estimatedCoord": {
            "lat": 46.1875,
            "lon": 9.1975
        },
        "distance": 72.51224897943521
    },
    {
        "id": 458103755,
        "name": "Pizzo di Gino",
        "ele": "2245",
        "realCoord": {
            "lat": 46.1236148,
            "lon": 9.1446563
        },
        "group": 3763,
        "estimatedCoord": {
            "lat": 46.12345258497572,
            "lon": 9.14523814624393
        },
        "distance": 48.34971485476091
    },
    {
        "id": 458103765,
        "name": "Monte Tabor",
        "ele": "2080",
        "realCoord": {
            "lat": 46.1122567,
            "lon": 9.1849508
        },
        "group": 3804,
        "estimatedCoord": {
            "lat": 46.11208333333333,
            "lon": 9.185416666666669
        },
        "distance": 40.77148089635066
    },
    {
        "id": 458162180,
        "name": "Cimetta dell'Acqua",
        "ele": "1689",
        "realCoord": {
            "lat": 46.1878762,
            "lon": 9.2528663
        },
        "group": 3889,
        "estimatedCoord": {
            "lat": 46.187222500000004,
            "lon": 9.253333333333334
        },
        "distance": 81.11882405774953
    },
    {
        "id": 458162217,
        "name": "Monte La Motta",
        "ele": "1516",
        "realCoord": {
            "lat": 46.1851029,
            "lon": 9.2814361
        },
        "group": 3923,
        "estimatedCoord": {
            "lat": 46.184583333333336,
            "lon": 9.282083333333334
        },
        "distance": 76.31571597022479
    },
    {
        "id": 458162283,
        "name": "Monte Duria",
        "ele": "2263",
        "realCoord": {
            "lat": 46.2029351,
            "lon": 9.2594737
        },
        "group": 3895,
        "estimatedCoord": {
            "lat": 46.2025,
            "lon": 9.259166666666667
        },
        "distance": 53.85964901957799
    },
    {
        "id": 458162354,
        "name": "Monte Cardinello",
        "ele": "2520",
        "realCoord": {
            "lat": 46.2107898,
            "lon": 9.2142817
        },
        "group": 3834,
        "estimatedCoord": {
            "lat": 46.21071433676386,
            "lon": 9.214404659805602
        },
        "distance": 12.650339054367539
    },
    {
        "id": 458162375,
        "name": "Monte l'Usciolo",
        "ele": "2147",
        "realCoord": {
            "lat": 46.2069446,
            "lon": 9.2745643
        },
        "group": 3907,
        "estimatedCoord": {
            "lat": 46.20666666666666,
            "lon": 9.274583333333332
        },
        "distance": 30.949177637103247
    },
    {
        "id": 458162386,
        "name": "Sasso Camosce",
        "ele": "2207",
        "realCoord": {
            "lat": 46.204482,
            "lon": 9.2674924
        },
        "group": 3901,
        "estimatedCoord": {
            "lat": 46.204166666666666,
            "lon": 9.2675
        },
        "distance": 35.07935320288064
    },
    {
        "id": 458162388,
        "name": "Mater de Paia",
        "ele": "2482",
        "realCoord": {
            "lat": 46.2239681,
            "lon": 9.2228914
        },
        "group": 3846,
        "estimatedCoord": {
            "lat": 46.22375,
            "lon": 9.2225
        },
        "distance": 38.67429560482722
    },
    {
        "id": 458225776,
        "name": "Pizzo Ledù",
        "ele": "2505",
        "realCoord": {
            "lat": 46.2321877,
            "lon": 9.3217685
        },
        "group": 3972,
        "estimatedCoord": {
            "lat": 46.23212959875514,
            "lon": 9.321666666666664
        },
        "distance": 10.156585743760331
    },
    {
        "id": 458225792,
        "name": "Monte Berlinghera",
        "ele": "1930",
        "realCoord": {
            "lat": 46.210492,
            "lon": 9.3895088
        },
        "group": 4034,
        "estimatedCoord": {
            "lat": 46.21031277340333,
            "lon": 9.38947912760905
        },
        "distance": 20.065752136836895
    },
    {
        "id": 458225793,
        "name": "Balzun",
        "ele": "1406",
        "realCoord": {
            "lat": 46.2134616,
            "lon": 9.4053188
        },
        "group": 4050,
        "estimatedCoord": {
            "lat": 46.21433323329332,
            "lon": 9.406666666666666
        },
        "distance": 141.9929712077503
    },
    {
        "id": 458225794,
        "name": "Sasso Campedello",
        "ele": "2309",
        "realCoord": {
            "lat": 46.2315235,
            "lon": 9.3503926
        },
        "group": 3994,
        "estimatedCoord": {
            "lat": 46.23125,
            "lon": 9.349583333333333
        },
        "distance": 69.30142014015505
    },
    {
        "id": 458225816,
        "name": "Cimone di Margno",
        "ele": "1805",
        "realCoord": {
            "lat": 46.0238509,
            "lon": 9.4128612
        },
        "group": 4056,
        "estimatedCoord": {
            "lat": 46.02366646658664,
            "lon": 9.412833133253303
        },
        "distance": 20.628706205974655
    },
    {
        "id": 458225845,
        "name": "Sasso di San Defendente",
        "ele": "1326",
        "realCoord": {
            "lat": 46.0098024,
            "lon": 9.3196089
        },
        "group": 3970,
        "estimatedCoord": {
            "lat": 46.00972250000001,
            "lon": 9.319860833333333
        },
        "distance": 21.39573477115979
    },
    {
        "id": 458225853,
        "name": "Zappello d'Agrogno",
        "ele": "1699",
        "realCoord": {
            "lat": 46.0924791,
            "lon": 9.383157
        },
        "group": 4029,
        "estimatedCoord": {
            "lat": 46.0925,
            "lon": 9.382916666666667
        },
        "distance": 18.683893695054653
    },
    {
        "id": 458241892,
        "name": "Monte Stavello di Pedesina",
        "ele": "2417",
        "realCoord": {
            "lat": 46.0781645,
            "lon": 9.4984369
        },
        "group": 4135,
        "estimatedCoord": {
            "lat": 46.07833333333333,
            "lon": 9.498333333333333
        },
        "distance": 20.408754537988802
    },
    {
        "id": 458241893,
        "name": "Monte Combana",
        "ele": "2327",
        "realCoord": {
            "lat": 46.0887371,
            "lon": 9.5051372
        },
        "group": 4146,
        "estimatedCoord": {
            "lat": 46.08866676664667,
            "lon": 9.504833533293343
        },
        "distance": 24.697468915977478
    },
    {
        "id": 458241899,
        "name": "Monte Rosetta",
        "ele": "2357",
        "realCoord": {
            "lat": 46.0836651,
            "lon": 9.5011622
        },
        "group": 4139,
        "estimatedCoord": {
            "lat": 46.08366646658664,
            "lon": 9.501166466586636
        },
        "distance": 0.36256872723756567
    },
    {
        "id": 458241912,
        "name": "Monte Rotondo",
        "ele": "2496",
        "realCoord": {
            "lat": 46.0704965,
            "lon": 9.4925365
        },
        "group": 4123,
        "estimatedCoord": {
            "lat": 46.07062515628907,
            "lon": 9.492291822955737
        },
        "distance": 23.69157016768248
    },
    {
        "id": 458241913,
        "name": "Pizzo Olano",
        "ele": "2265",
        "realCoord": {
            "lat": 46.0947523,
            "lon": 9.5023883
        },
        "group": 4143,
        "estimatedCoord": {
            "lat": 46.09437484371093,
            "lon": 9.50270817704426
        },
        "distance": 48.697796435243255
    },
    {
        "id": 458241914,
        "name": "Monte Peschiera",
        "ele": "698",
        "realCoord": {
            "lat": 46.2129926,
            "lon": 9.426652
        },
        "group": 4067,
        "estimatedCoord": {
            "lat": 46.2125,
            "lon": 9.42625
        },
        "distance": 62.92475306101758
    },
    {
        "id": 458241916,
        "name": "Pizzo Alto",
        "ele": "2511",
        "realCoord": {
            "lat": 46.0775287,
            "lon": 9.4568634
        },
        "group": 4086,
        "estimatedCoord": {
            "lat": 46.0775,
            "lon": 9.457083333333335
        },
        "distance": 17.267360583734664
    },
    {
        "id": 458241923,
        "name": "Cima di Moncale",
        "ele": "2305",
        "realCoord": {
            "lat": 46.0856724,
            "lon": 9.4341906
        },
        "group": 4069,
        "estimatedCoord": {
            "lat": 46.085166566626654,
            "lon": 9.434166666666668
        },
        "distance": 56.29404992040019
    },
    {
        "id": 458241925,
        "name": "Monte Brusada",
        "ele": "2143",
        "realCoord": {
            "lat": 46.1827255,
            "lon": 9.4961138
        },
        "group": 4128,
        "estimatedCoord": {
            "lat": 46.1825,
            "lon": 9.49625
        },
        "distance": 27.18714902900493
    },
    {
        "id": 458241926,
        "name": "Zuc di Valbona",
        "ele": "2132",
        "realCoord": {
            "lat": 46.0077769,
            "lon": 9.4873428
        },
        "group": 4116,
        "estimatedCoord": {
            "lat": 46.007142806115155,
            "lon": 9.487381054436348
        },
        "distance": 70.59204931093224
    },
    {
        "id": 458241931,
        "name": "Monte Colombana",
        "ele": "2387",
        "realCoord": {
            "lat": 46.0627918,
            "lon": 9.5097663
        },
        "group": 4159,
        "estimatedCoord": {
            "lat": 46.062777777777775,
            "lon": 9.510555555555555
        },
        "distance": 60.933927712369936
    },
    {
        "id": 458241942,
        "name": "Pizzo Cornagiera",
        "ele": "2049",
        "realCoord": {
            "lat": 46.0210805,
            "lon": 9.457833
        },
        "group": 4087,
        "estimatedCoord": {
            "lat": 46.020833333333336,
            "lon": 9.457777916666668
        },
        "distance": 27.81955597718771
    },
    {
        "id": 458241952,
        "name": "Pizzo Cavallo",
        "ele": "2026",
        "realCoord": {
            "lat": 46.0467934,
            "lon": 9.4807799
        },
        "group": 4112,
        "estimatedCoord": {
            "lat": 46.04666666666667,
            "lon": 9.480833333333333
        },
        "distance": 14.687708923399507
    },
    {
        "id": 458241953,
        "name": "Pizzo Laréc",
        "ele": "2152",
        "realCoord": {
            "lat": 46.0458501,
            "lon": 9.4889087
        },
        "group": 4120,
        "estimatedCoord": {
            "lat": 46.045666866626675,
            "lon": 9.48883323335333
        },
        "distance": 21.19742710804468
    },
    {
        "id": 461690570,
        "name": "Pizzo Pec",
        "ele": "1005",
        "realCoord": {
            "lat": 45.7726473,
            "lon": 9.4998755
        },
        "group": 1410,
        "estimatedCoord": {
            "lat": 45.7726388194097,
            "lon": 9.49972236118059
        },
        "distance": 11.918452026360182
    },
    {
        "id": 461715290,
        "name": "Monte Pernione",
        "ele": "434",
        "realCoord": {
            "lat": 44.935354,
            "lon": 9.1098293
        },
        "group": 252,
        "estimatedCoord": {
            "lat": 44.934444444444445,
            "lon": 9.110277777777778
        },
        "distance": 107.15572928407762
    },
    {
        "id": 461715291,
        "name": "Monte Musso",
        "ele": "363",
        "realCoord": {
            "lat": 44.9508425,
            "lon": 9.0799955
        },
        "group": 233,
        "estimatedCoord": {
            "lat": 44.95124968742186,
            "lon": 9.07979182295574
        },
        "distance": 48.04552144728216
    },
    {
        "id": 461755824,
        "name": "Monte Rotondo",
        "ele": "1564",
        "realCoord": {
            "lat": 44.7039152,
            "lon": 9.2082535
        },
        "group": 292,
        "estimatedCoord": {
            "lat": 44.70388888888888,
            "lon": 9.208055555555555
        },
        "distance": 15.920156484764057
    },
    {
        "id": 461755923,
        "name": "Monte Penice",
        "ele": "1460",
        "realCoord": {
            "lat": 44.7847293,
            "lon": 9.3174115
        },
        "group": 342,
        "estimatedCoord": {
            "lat": 44.78479182295574,
            "lon": 9.317708177044262
        },
        "distance": 24.432209544700903
    },
    {
        "id": 461755947,
        "name": "Il Poggio",
        "ele": "1030",
        "realCoord": {
            "lat": 44.7846573,
            "lon": 9.2604954
        },
        "group": 317,
        "estimatedCoord": {
            "lat": 44.78458333333333,
            "lon": 9.260416666666666
        },
        "distance": 10.31133477252904
    },
    {
        "id": 461755956,
        "name": "Cima di Valle Scura",
        "ele": "1127",
        "realCoord": {
            "lat": 44.7617965,
            "lon": 9.2830827
        },
        "group": 329,
        "estimatedCoord": {
            "lat": 44.76166666666667,
            "lon": 9.282916666666669
        },
        "distance": 19.50644868112814
    },
    {
        "id": 461755976,
        "name": "Cima della Colletta",
        "ele": "1490",
        "realCoord": {
            "lat": 44.7252158,
            "lon": 9.2603794
        },
        "group": 318,
        "estimatedCoord": {
            "lat": 44.725,
            "lon": 9.260833333333334
        },
        "distance": 43.16319040142914
    },
    {
        "id": 461756176,
        "name": "Monte Lesima",
        "ele": "1724",
        "realCoord": {
            "lat": 44.6796731,
            "lon": 9.2596001
        },
        "group": 314,
        "estimatedCoord": {
            "lat": 44.68,
            "lon": 9.259166666666667
        },
        "distance": 49.97248112170081
    },
    {
        "id": 465246663,
        "name": "Monte Bedea",
        "ele": "665",
        "realCoord": {
            "lat": 46.0106486,
            "lon": 8.7768453
        },
        "group": 3299,
        "estimatedCoord": {
            "lat": 46.01125,
            "lon": 8.776666666666667
        },
        "distance": 68.3021805545394
    },
    {
        "id": 465246668,
        "name": "Monte Colmegnino",
        "ele": "1019",
        "realCoord": {
            "lat": 46.0342552,
            "lon": 8.7981695
        },
        "group": 3330,
        "estimatedCoord": {
            "lat": 46.034166666666664,
            "lon": 8.798610833333333
        },
        "distance": 35.47354710102136
    },
    {
        "id": 465246670,
        "name": "Monte Borgna",
        "ele": "1163",
        "realCoord": {
            "lat": 46.0780375,
            "lon": 8.7465377
        },
        "group": 3264,
        "estimatedCoord": {
            "lat": 46.07833333333333,
            "lon": 8.747083333333334
        },
        "distance": 53.433655375754434
    },
    {
        "id": 465507037,
        "name": "Monte Mondonico",
        "ele": "801",
        "realCoord": {
            "lat": 45.9082039,
            "lon": 8.8180279
        },
        "group": 1278,
        "estimatedCoord": {
            "lat": 45.907777777777774,
            "lon": 8.817777777777778
        },
        "distance": 51.19828926645996
    },
    {
        "id": 465507046,
        "name": "Monte Pian Nave",
        "ele": "1060",
        "realCoord": {
            "lat": 45.9484449,
            "lon": 8.7202668
        },
        "group": 1268,
        "estimatedCoord": {
            "lat": 45.94770817704426,
            "lon": 8.71979182295574
        },
        "distance": 89.8025011176192
    },
    {
        "id": 465507126,
        "name": "Monte Rho d'Arcisate",
        "ele": "934",
        "realCoord": {
            "lat": 45.8758367,
            "lon": 8.8544458
        },
        "group": 1284,
        "estimatedCoord": {
            "lat": 45.87583333333333,
            "lon": 8.855416666666668
        },
        "distance": 75.1847950668659
    },
    {
        "id": 465507134,
        "name": "Monte Mezzano",
        "ele": "925",
        "realCoord": {
            "lat": 45.9711778,
            "lon": 8.8230009
        },
        "group": 1279,
        "estimatedCoord": {
            "lat": 45.97125,
            "lon": 8.8225
        },
        "distance": 39.54702694886985
    },
    {
        "id": 465507147,
        "name": "Monte Legnone",
        "ele": "868",
        "realCoord": {
            "lat": 45.8753776,
            "lon": 8.7956186
        },
        "group": 1274,
        "estimatedCoord": {
            "lat": 45.87479182295574,
            "lon": 8.795208177044262
        },
        "distance": 72.49471578563372
    },
    {
        "id": 465507163,
        "name": "Monte Orsa",
        "ele": "984",
        "realCoord": {
            "lat": 45.8879351,
            "lon": 8.9148602
        },
        "group": 1295,
        "estimatedCoord": {
            "lat": 45.8871668667467,
            "lon": 8.914666866746698
        },
        "distance": 86.75158976755897
    },
    {
        "id": 465507211,
        "name": "Monte Monarco",
        "ele": "854",
        "realCoord": {
            "lat": 45.8628446,
            "lon": 8.840906
        },
        "group": 1281,
        "estimatedCoord": {
            "lat": 45.86208333333333,
            "lon": 8.84125
        },
        "distance": 88.76906684176555
    },
    {
        "id": 465507245,
        "name": "Monte della Colonna",
        "ele": "1199",
        "realCoord": {
            "lat": 45.9291848,
            "lon": 8.7223688
        },
        "group": 1269,
        "estimatedCoord": {
            "lat": 45.9289584896224,
            "lon": 8.722708177044261
        },
        "distance": 36.373596090030134
    },
    {
        "id": 465507261,
        "name": "Monte Scerre`",
        "ele": "799",
        "realCoord": {
            "lat": 45.9177063,
            "lon": 8.8058981
        },
        "group": 1275,
        "estimatedCoord": {
            "lat": 45.91683333333333,
            "lon": 8.806166666666666
        },
        "distance": 99.29904675662134
    },
    {
        "id": 465507381,
        "name": "Sasso del Ferro",
        "ele": "1057",
        "realCoord": {
            "lat": 45.9116087,
            "lon": 8.6434331
        },
        "group": 1263,
        "estimatedCoord": {
            "lat": 45.911500100040016,
            "lon": 8.643333333333334
        },
        "distance": 14.33627734709909
    },
    {
        "id": 465507387,
        "name": "Monte Grumello",
        "ele": "684",
        "realCoord": {
            "lat": 45.8986396,
            "lon": 8.9129589
        },
        "group": 1294,
        "estimatedCoord": {
            "lat": 45.89833333333333,
            "lon": 8.913333333333334
        },
        "distance": 44.7278428474104
    },
    {
        "id": 465507413,
        "name": "Punta Merigetto",
        "ele": "1164",
        "realCoord": {
            "lat": 45.8691666,
            "lon": 8.7500545
        },
        "group": 1273,
        "estimatedCoord": {
            "lat": 45.86833333333333,
            "lon": 8.750416666666666
        },
        "distance": 96.8355965341351
    },
    {
        "id": 469428105,
        "name": "Corno Branchino",
        "ele": "2029",
        "realCoord": {
            "lat": 45.9551507,
            "lon": 9.802419
        },
        "group": 1500,
        "estimatedCoord": {
            "lat": 45.95583333333334,
            "lon": 9.803333333333335
        },
        "distance": 103.75137886404879
    },
    {
        "id": 470535120,
        "name": "Pizzo Sceroia",
        "ele": "2948",
        "realCoord": {
            "lat": 46.2799909,
            "lon": 9.5644866
        },
        "group": 4216,
        "estimatedCoord": {
            "lat": 46.28,
            "lon": 9.565
        },
        "distance": 39.48050339878368
    },
    {
        "id": 470535123,
        "name": "Pizzo Porcellizzo",
        "ele": "3075",
        "realCoord": {
            "lat": 46.2852221,
            "lon": 9.5730479
        },
        "group": 4222,
        "estimatedCoord": {
            "lat": 46.28541666666666,
            "lon": 9.573333333333332
        },
        "distance": 30.81793599070364
    },
    {
        "id": 470535148,
        "name": "Il Cantaccio",
        "ele": "2798",
        "realCoord": {
            "lat": 46.3037633,
            "lon": 9.5611058
        },
        "group": 4211,
        "estimatedCoord": {
            "lat": 46.30380947278182,
            "lon": 9.560833333333333
        },
        "distance": 21.557431102029753
    },
    {
        "id": 470535179,
        "name": "Punta Torelli",
        "ele": "3134",
        "realCoord": {
            "lat": 46.2915371,
            "lon": 9.5807249
        },